     2.11           OBSERVATION DATA    G (GPS)             RINEX VERSION / TYPE
teqc  2012Jun6      GSI, JAPAN          20200209 08:27:26UTCPGM / RUN BY / DATE
Linux 2.4.21-27.ELsmp|Opteron|gcc -static|Linux x86_64|=+   COMMENT
BIT 2 OF LLI FLAGS DATA COLLECTED UNDER A/S CONDITION       COMMENT
1222                                                        MARKER NAME
GSI, JAPAN          GEOSPATIAL INFORMATION AUTHORITY OF JAPAOBSERVER / AGENCY
00000               TRIMBLE NETR9       5.37,21/SEP/2018    REC # / TYPE / VERS
                    TPSCR.G5C       GSI                     ANT # / TYPE
 -3958768.9151  3351624.0916  3699193.1069                  APPROX POSITION XYZ
        0.0000        0.0000        0.0000                  ANTENNA: DELTA H/E/N
     1     1                                                WAVELENGTH FACT L1/2
     6    L1    C1    L2    P2    S1    S2                  # / TYPES OF OBSERV
    30.0000                                                 INTERVAL
Forced Modulo Decimation to 30 seconds                      COMMENT
 SNR is mapped to RINEX snr flag value [0-9]                COMMENT
  L1 & L2: min(max(int(snr_dBHz/6), 0), 9)                  COMMENT
teqc windowed: start @ 2020 Feb  9 07:00:00.000             COMMENT
teqc windowed:  end  @ 2020 Feb  9 07:59:59.000             COMMENT
teqc edited: all GLONASS satellites excluded                COMMENT
teqc edited: all SBAS satellites excluded                   COMMENT
teqc edited: all Galileo satellites excluded                COMMENT
teqc edited: all Compass satellites excluded                COMMENT
teqc edited: all QZSS satellites excluded                   COMMENT
  2020     2     9     7     0    0.0000000     GPS         TIME OF FIRST OBS
                                                            END OF HEADER
 20  2  9  7  0  0.0000000  0  9G27G26G04G21G29G31G09G16G14
 116066486.831 7  22086727.359    90441575.78946  22086733.9654         46.000
        39.5004
 107949510.376 8  20542109.586    84116581.80448  20542116.5044         51.300
        48.2004
 119437070.836 6  22728150.508    93067994.51544  22728154.6454         39.200
        24.3004
 119584615.312 7  22756184.477    93182855.37145  22756188.9574         43.300
        33.8004
 125810270.051 4  23940897.180    98034238.71842  23940902.9964         28.600
        17.4004
 110122770.878 8  20955665.555    85810012.33947  20955669.0004         50.300
        44.6004
 130967962.79415  24922416.602                                          33.100

 109913333.724 8  20915767.039    85646627.41947  20915770.2584         48.500
        42.4004
 122112664.742 6  23237282.508    95152800.56844  23237288.2934         39.200
        26.0004
 20  2  9  7  0 30.0000000  0 10G27G26G04G23G21G29G31G09G16G14
 115973878.608 7  22069104.469    90369413.56846  22069111.2194         46.300
        39.9004
 107954529.938 8  20543064.969    84120493.14048  20543071.5474         51.100
        48.1004
 119399904.417 6  22721078.609    93039033.68544  22721083.2814         40.200
        28.6004
 122903890.36114  23387874.641                                          24.600

 119564789.790 7  22752412.336    93167406.93045  22752415.3244         43.900
        34.3004
 125911931.073 5  23960245.523    98113207.30043  23960248.9064         34.800
        18.3004
 110165772.806 8  20963848.539    85843520.31647  20963852.0394         50.500
        44.6004
 130892094.484 5  24907937.289                                          33.200

 109884414.720 8  20910263.969    85624093.14547  20910266.9454         48.100
        42.2004
 122215927.907 6  23256933.773    95233265.32744  23256937.8014         40.500
        26.2004
 20  2  9  7  1  0.0000000  0 10G27G26G04G23G21G29G31G09G16G14
 115881626.350 7  22051549.602    90297528.72246  22051555.9774         45.800
        38.8004
 107959769.875 8  20544061.555    84124576.19947  20544068.3554         51.300
        46.8004
 119363288.087 6  22714109.813    93010501.53044  22714116.0354         40.500
        28.3004
 122856716.14115  23378871.547                                          34.200

 119545425.768 7  22748727.023    93152318.10645  22748730.1764         43.900
        33.3004
 126013746.694 6  23979621.938    98192544.10243  23979624.8094         36.700
        19.3004
 110209156.227 8  20972103.945    85877325.56447  20972107.7774         50.200
        44.8004
 130816381.204 5  24893528.688                                          34.800

 109855759.108 8  20904810.898    85601764.10147  20904813.9844         48.000
        42.0004
 122319327.931 6  23276609.531    95313836.70444  23276614.4144         40.400
        25.8004
 20  2  9  7  1 30.0000000  0  9G27G26G04G21G29G31G09G16G14
 115789729.005 7  22034061.844    90225920.41546  22034068.1174         45.100
        39.0004
 107965226.743 8  20545099.930    84128828.31447  20545106.9224         50.200
        46.7004
 119327220.058 6  22707246.375    92982396.55644  22707251.4534         40.700
        28.3004
 119526520.907 7  22745130.422    93137587.06845  22745133.4884         45.100
        34.2004
 126115712.341 5  23999025.523    98271997.91142  23999027.7854         34.800
        17.4004
 110252917.964 8  20980431.836    85911425.61147  20980435.1564         49.800
        44.3004
 130741049.244 6  24879195.914                                          37.100

 109827363.381 7  20899407.406    85579637.56746  20899410.8634         47.300
        41.7004
 122422858.653 6  23296312.102    95394509.97944  23296315.8554         40.900
        27.8004
 20  2  9  7  2  0.0000000  0  9G27G26G04G21G29G31G09G16G14
 115698190.105 7  22016643.133    90154591.42646  22016648.7154         46.800
        40.0004
 107970901.791 8  20546179.805    84133250.42147  20546186.8754         49.800
        46.4004
 119291702.806 6  22700488.031    92954720.80044  22700492.4734         40.600
        28.7004
 119508078.480 7  22741620.313    93123216.36845  22741623.8634         44.600
        34.3004
 126217827.177 6  24018456.836    98351567.85443  24018460.6954         37.700
        20.6004
 110297059.561 8  20988831.625    85945821.64647  20988834.9774         50.300
        44.7004
 130666102.467 5  24864931.391   101817775.59142  24864940.6804         33.700
        14.8004
 109799228.915 8  20894054.320    85557714.61847  20894056.9964         48.100
        42.8004
 122526518.917 6  23316037.398    95475284.11644  23316041.6374         39.800
        26.0004
 20  2  9  7  2 30.0000000  0 10G27G26G04G23G21G29G31G09G16G14
 115607010.232 7  21999292.070    90083542.21246  21999297.7304         47.100
        40.2004
 107976793.342 8  20547301.430    84137841.25547  20547307.9574         51.100
        47.0004
 119256736.220 6  22693834.070    92927474.11944  22693839.1134         40.500
        29.9004
 122717627.42015  23352409.609                                          33.600

 119490098.468 7  22738199.242    93109205.98645  22738202.9104         43.800
        34.7004
 126320087.490 6  24037915.648    98431251.19243  24037920.0394         37.600
        21.1004
 110341579.500 8  20997303.750    85980512.51047  20997306.9224         50.300
        44.4004
 130591541.881 5  24850744.117   101759676.55642  24850751.9384         35.400
        12.6004
 109771353.828 7  20888748.930    85535993.79047  20888752.2894         47.200
        42.6004
 122630304.518 6  23335787.742    95556155.98544  23335791.6644         41.100
        26.1004
 20  2  9  7  3  0.0000000  0 10G27G26G04G23G21G29G31G09G16G14
 115516191.226 7  21982009.133    90012774.16546  21982015.6134         45.200
        40.2004
 107982900.837 8  20548463.148    84142600.34447  20548470.1954         51.100
        46.8004
 119222321.124 7  22687286.320    92900657.15945  22687290.4884         43.300
        32.2004
 122672249.918 5  23343776.891                                          33.400

 119472581.993 7  22734865.852    93095556.79545  22734869.3874         43.800
        33.7004
 126422490.217 5  24057402.586    98511045.52643  24057406.3794         35.100
        19.0004
 110386477.599 8  21005847.563    86015498.04247  21005851.1994         50.200
        44.8004
 130517369.416 5  24836629.672   101701879.80652  24836635.4304         35.200
        15.6004
 109743737.596 7  20883493.422    85514474.67047  20883497.4844         47.200
        42.6004
 122734212.257 6  23355559.625    95637122.99244  23355564.7664         38.700
        26.2004
 20  2  9  7  3 30.0000000  0 10G27G26G04G23G21G29G31G09G16G14
 115425736.486 7  21964797.250    89942289.98246  21964802.8204         46.900
        40.0004
 107989225.473 8  20549667.203    84147528.61647  20549673.6914         51.500
        47.1004
 119188460.082 7  22680841.688    92874271.91545  22680847.1804         43.700
        31.6004
 122627242.01414  23335230.211                                          29.600

 119455531.670 7  22731620.992    93082270.83445  22731625.6254         44.200
        34.3004
 126525034.418 6  24076915.930    98590950.07343  24076919.7074         37.000
        19.0004
 110431755.155 8  21014463.484    86050779.23747  21014467.3014         50.800
        44.9004
 130443351.00015  24822586.297   101644202.32052  24822594.2854         30.700
        14.8004
 109716381.536 7  20878288.359    85493158.26246  20878291.8094         47.700
        41.8004
 122838240.848 6  23375355.984    95718184.16644  23375360.0904         40.000
        26.0004
 20  2  9  7  4  0.0000000  0  9G27G26G04G21G29G31G09G16G14
 115335647.645 7  21947653.086    89872090.92646  21947659.3244         46.100
        39.6004
 107995766.676 8  20550911.977    84152625.65447  20550918.2504         52.300
        47.6004
 119155153.816 6  22674503.289    92848318.98944  22674508.4494         41.700
        29.1004
 119438948.376 7  22728465.656    93069348.82645  22728469.2034         44.500
        34.5004
 126627717.838 6  24096457.055    98670963.17242  24096458.4964         36.100
        17.8004
 110477411.782 8  21023151.578    86086355.81347  21023155.7854         49.800
        44.7004
 130370199.53715  24808623.953   101587208.39952  24808633.4224         32.000
        16.9004
 109689284.550 8  20873132.117    85472043.74447  20873135.1914         48.200
        42.9004
 122942387.220 6  23395175.273    95799337.09844  23395178.4064         40.500
        26.8004
 20  2  9  7  4 30.0000000  0 10G27G26G04G23G21G29G31G09G16G14
 115245925.866 7  21930579.656    89802177.87846  21930585.5744         45.000
        39.4004
 108002523.186 8  20552197.625    84157890.45747  20552204.2704         51.700
        47.8004
 119122402.453 6  22668270.898    92822798.43444  22668275.5394         40.900
        28.3004
 122539056.161 5  23318433.414    95485075.86742  23318431.2894         33.700
        15.6004
 119422832.843 7  22725398.984    93056791.28345  22725402.0514         44.700
        34.4004
 126730536.624 5  24116019.906    98751081.79243  24116024.4804         34.100
        18.3004
 110523446.608 8  21031911.953    86122227.09047  21031915.6054         50.000
        44.3004
 130297208.618 5  24794733.313   101530332.32942  24794741.5944         34.000
        15.6004
 109662445.594 8  20868024.930    85451130.28147  20868027.7934         49.100
        43.2004
 123046647.583 6  23415014.711    95880578.86244  23415019.0274         39.500
        25.6004
 20  2  9  7  5  0.0000000  0 10G27G26G04G23G21G29G31G09G16G14
 115156573.130 7  21913576.547    89732552.37946  21913582.9884         46.700
        41.1004
 108009494.811 8  20553524.563    84163322.90747  20553531.1994         51.200
        47.9004
 119090207.160 6  22662144.328    92797711.16544  22662149.7344         40.600
        28.6004
 122495575.00915  23310174.813                                          31.000

 119407186.185 7  22722421.133    93044599.07645  22722424.6374         45.200
        34.4004
 126833488.665 5  24135609.477    98831304.07742  24135615.8324         34.600
        16.3004
 110569859.769 8  21040744.000    86158393.18847  21040747.1914         50.300
        44.3004
 130224379.87315  24780917.477   101473573.45352  24780924.9734         30.800
        13.9004
 109635864.734 8  20862966.578    85430417.93347  20862969.7384         48.500
        42.4004
 123151019.416 6  23434876.438    95961907.49544  23434881.6604         40.200
        26.1004
 20  2  9  7  5 30.0000000  0  9G27G26G04G21G29G31G09G16G14
 115067592.149 7  21896643.750    89663216.58546  21896649.9494         45.600
        40.2004
 108016682.134 8  20554892.078    84168923.42147  20554898.6914         51.800
        47.6004
 119058569.674 6  22656123.977    92773058.60144  22656128.3634         40.500
        28.8004
 119392010.566 7  22719533.219    93032773.93045  22719536.3324         44.000
        34.5004
 126936572.341 6  24155227.391    98911628.97542  24155232.6094         36.100
        14.8004
 110616651.854 8  21049648.250    86194854.53847  21049651.3284         49.900
        44.6004
 130152423.785 5  24767181.828   101417513.38042  24767187.3364         33.100
        14.8004
 109609542.020 7  20857957.305    85409906.71547  20857960.6294         47.900
        43.1004
 123255499.759 6  23454758.969    96043320.71144  23454762.5904         41.100
        27.2004
 20  2  9  7  6  0.0000000  0 10G27G26G04G23G21G29G31G09G16G14
 114978984.622 7  21879783.016    89594171.76846  21879787.9774         46.900
        40.4004
 108024084.549 8  20556300.648    84174691.52847  20556307.4064         51.600
        47.8004
 119027490.704 7  22650211.336    92748841.18045  22650214.3364         43.500
        30.3004
 122410353.820 5  23293938.195                                          32.000

 119377306.746 7  22716735.148    93021316.41945  22716738.6994         44.700
        34.4004
 127039784.996 6  24174868.344    98992054.24942  24174874.0864         36.700
        14.8004
 110663822.243 8  21058624.219    86231610.67747  21058628.3014         49.600
        44.5004
 130080411.36116  24753521.180   101361378.71152  24753525.8714         36.000
        16.9004
 109583476.894 8  20852997.594    85389596.24547  20853000.6524         48.000
        42.6004
 123360086.148 6  23474660.523    96124816.54644  23474665.3014         39.700
        26.0004
 20  2  9  7  6 30.0000000  0 10G27G26G04G23G21G29G31G09G16G14
 114890751.549 7  21862991.883    89525418.74446  21862998.7114         46.000
        40.6004
 108031700.976 8  20557749.766    84180626.41047  20557756.8204         51.200
        47.8004
 118996970.350 7  22644402.125    92725059.09044  22644406.7424         43.000
        28.7004
 122368342.22415  23285963.219                                          32.600

 119363075.079 7  22714027.164    93010226.82745  22714031.3984         44.400
        34.6004
 127143123.282 5  24194530.789                                          33.300

 110711370.201 8  21067672.906    86268661.02647  21067675.7974         50.500
        44.3004
 130009248.711 6  24739937.969   101305948.34642  24739943.2624         37.500
        17.4004
 109557668.228 8  20848086.195    85369485.59347  20848089.1644         48.400
        42.6004
 123464774.992 6  23494581.758    96206392.20344  23494587.1884         38.700
        27.5004
 20  2  9  7  7  0.0000000  0 10G27G26G04G23G21G29G31G09G16G14
 114802894.387 7  21846273.148    89456958.65546  21846279.7734         45.900
        40.6004
 108039530.625 8  20559239.984    84186727.43548  20559246.7774         51.700
        48.4004
 118967009.029 6  22638700.813    92701712.60744  22638705.4454         41.800
        29.7004
 122327043.670 6  23278085.500    95319879.53942  23278088.1454         36.200
        17.4004
 119349316.438 7  22711409.242    92999505.82645  22711412.6024         44.500
        35.1004
 127246584.507 6  24214221.688                                          36.000

 110759295.084 8  21076792.953    86306005.07147  21076795.4924         51.700
        44.9004
 129938269.230 6  24726430.500   101250639.67443  24726436.4144         37.700
        19.6004
 109532115.357 8  20843223.633    85349574.28547  20843226.8014         48.400
        42.8004
 123569563.038 6  23514522.789    96288045.13644  23514527.6024         39.800
        26.7004
 20  2  9  7  7 30.0000000  0 10G27G26G04G23G21G29G31G09G16G14
 114715415.859 7  21829626.602    89388793.58046  21829632.8674         46.500
        40.6004
 108047574.102 8  20560770.508    84192995.08148  20560777.4104         50.900
        48.1004
 118937608.516 6  22633106.789    92678803.11745  22633111.5554         41.200
        30.4004
 122286140.716 6  23270301.602    95288007.16943  23270303.4304         36.700
        18.3004
 119336032.756 7  22708881.336    92989154.91645  22708884.9024         45.300
        35.4004
 127350166.921 6  24233933.445    99233922.37843  24233938.9804         39.600
        20.1004
 110807597.474 8  21085984.063    86343643.28447  21085987.4774         51.000
        45.1004
 129867698.678 6  24713001.539   101195649.69843  24713005.9844         37.300
        18.3004
 109506818.698 8  20838410.023    85329862.61247  20838413.2704         48.600
        43.6004
 123674448.188 6  23534480.813    96369773.73544  23534485.0204         38.300
        24.0004
 20  2  9  7  8  0.0000000  0 10G27G26G04G23G21G29G31G09G16G14
 114628317.214 7  21813052.422    89320924.54746  21813058.4064         46.400
        40.6004
 108055830.478 8  20562341.648    84199428.61847  20562348.3054         51.000
        47.8004
 118908769.001 6  22627617.156    92656330.79344  22627623.9774         38.400
        29.4004
 122245740.314 5  23262613.102    95256526.30342  23262614.9384         33.900
        17.8004
 119323224.428 7  22706443.922    92979174.42646  22706447.5394         44.700
        36.0004
 127453867.594 6  24253666.656    99314728.02943  24253672.7274         39.400
        19.6004
 110856276.625 8  21095247.172    86381575.06847  21095250.8244         50.900
        44.4004
 129797538.785 5  24699649.969   101140979.63943  24699655.3874         35.900
        19.9004
 109481777.230 8  20833644.680    85310349.79147  20833648.1524         48.200
        43.4004
 123779426.770 6  23554457.617    96451575.15144  23554461.9654         36.200
        24.4004
 20  2  9  7  8 30.0000000  0  9G27G26G04G21G29G31G09G16G14
 114541599.779 7  21796550.242    89253352.52546  21796556.5164         45.900
        40.5004
 108064298.996 8  20563953.281    84206027.46847  20563959.5744         51.000
        47.5004
 118880490.767 6  22622236.508    92634295.83144  22622241.2734         40.100
        29.6004
 119310891.971 7  22704097.391    92969564.73645  22704100.5204         44.600
        35.8004
 127557683.864 6  24273422.375    99395623.79843  24273427.4144         40.000
        18.6004
 110905331.667 8  21104582.148    86419799.76347  21104585.9264         50.700
        44.6004
 129727791.056 5  24686376.594   101086630.77043  24686382.9144         34.100
        18.6004
 109456990.082 8  20828927.977    85291035.12547  20828931.1914         48.200
        42.5004
 123884495.528 6  23574451.586    96533446.84843  23574456.5274         37.500
        22.3004
 20  2  9  7  9  0.0000000  0  9G27G26G04G21G29G31G09G16G14
 114455265.744 7  21780121.711    89186079.29746  21780128.4384         46.200
        40.5004
 108072979.721 8  20565605.039    84212791.68147  20565611.2504         50.900
        47.2004
 118852775.067 6  22616963.656    92612699.23245  22616968.2464         41.900
        32.1004
 119299036.928 7  22701840.836    92960327.05245  22701844.0634         44.100
        34.0004
 127661613.330 7  24293199.875    99476607.84943  24293203.7344         42.200
        19.0004
 110954762.961 8  21113988.609    86458317.64247  21113992.0434         49.800
        43.9004
 129658458.227 5  24673182.805   101032605.26742  24673189.4414         34.100
        17.8004
 109432457.519 8  20824259.406    85271918.85047  20824262.6214         48.100
        42.4004
 123989651.911 6  23594462.641    96615386.81143  23594467.9844         37.500
        22.2004
 20  2  9  7  9 30.0000000  0 11G27G26G04G23G21G29G31G09G16G14G08
 114369317.720 7  21763766.344    89119106.83146  21763772.6764         46.500
        40.9004
 108081873.225 8  20567297.328    84219721.67347  20567303.9264         51.400
        47.2004
 118825623.567 6  22611796.398    92591542.21045  22611801.8594         41.800
        31.9004
 122127539.514 6  23240125.289    95164435.09743  23240127.1024         38.400
        21.3004
 119287661.284 7  22699676.039    92951462.91045  22699679.3554         45.500
        34.1004
 127765654.447 7  24312998.984    99557678.88043  24313002.5944         43.100
        22.5004
 111004571.080 8  21123466.531    86497129.14447  21123470.0434         49.600
        44.0004
 129589542.942 5  24660068.195   100978905.02342  24660075.2814         34.800
        16.3004
 109408179.674 7  20819639.242    85253001.05547  20819642.7664         47.900
        42.1004
 124094894.345 6  23614488.875    96697393.82743  23614495.1024         37.100
        22.5004
 129107439.827 5  24568326.625                                          33.300

 20  2  9  7 10  0.0000000  0 11G27G26G04G23G21G29G31G09G16G14G08
 114283756.732 7  21747484.750    89052435.94546  21747490.3524         45.900
        41.2004
 108090978.413 8  20569029.875    84226816.62347  20569036.4924         50.700
        47.0004
 118799036.066 6  22606737.219    92570824.65345  22606742.1024         40.900
        30.2004
 122089161.065 6  23232823.297    95134529.80943  23232824.0044         39.600
        23.0004
 119276765.220 7  22697602.328    92942972.48345  22697606.2074         44.100
        35.1004
 127869804.436 6  24332815.703    99638834.66843  24332821.0274         39.900
        22.5004
 111054754.976 8  21133016.328    86536233.44947  21133020.0164         49.900
        43.9004
 129521046.757 5  24647034.281   100925531.47842  24647039.9064         33.700
        14.8004
 109384155.737 8  20815067.789    85234281.11247  20815070.7974         48.500
        42.8004
 124200218.762 6  23634532.539    96779464.72943  23634538.1604         39.400
        23.9004
 128998973.46514  24547730.391                                          26.800

 20  2  9  7 10 30.0000000  0 10G27G26G04G23G21G29G31G09G16G14
 114198585.050 7  21731277.875    88986068.43546  21731282.7734         47.600
        41.9004
 108100295.761 8  20570803.102    84234076.90347  20570809.7504         50.500
        47.2004
 118773013.877 6  22601784.391    92550547.61044  22601789.8674         38.700
        28.2004
 122051291.583 6  23225615.328    95105021.06743  23225617.2704         38.100
        21.7004
 119266350.046 7  22695620.938    92934856.78845  22695623.9304         44.300
        34.3004
 127974061.170 6  24352656.102    99720073.63543  24352660.3324         40.300
        21.8004
 111105314.683 8  21142637.398    86575630.60947  21142641.1214         49.500
        44.3004
 129452972.300 5  24634080.531   100872486.44942  24634083.3284         33.300
        14.8004
 109360385.363 7  20810544.109    85215758.74647  20810547.3674         47.800
        42.8004
 124305622.733 6  23654590.938    96861597.64044  23654596.2664         37.800
        24.0004
 20  2  9  7 11  0.0000000  0 10G27G26G04G23G21G29G31G09G16G14
 114113803.693 7  21715143.648    88920005.06646  21715149.9144         46.700
        41.4004
 108109823.792 8  20572616.109    84241501.34847  20572622.9304         50.300
        47.2004
 118747556.922 6  22596940.906    92530711.01244  22596944.4104         39.700
        26.8004
 122013930.983 6  23218506.484    95075908.95343  23218507.0354         38.100
        22.0004
 119256416.031 7  22693730.398    92927116.01145  22693734.0434         45.400
        35.2004
 128078421.426 6  24372515.492    99801393.32743  24372517.9614         40.900
        20.1004
 111156249.597 8  21152330.641    86615320.15047  21152333.8364         50.500
        44.3004
 129385320.987 5  24621207.180   100819771.08842  24621211.1564         34.000
        13.9004
 109336867.611 8  20806069.195    85197433.23247  20806072.3674         48.000
        43.2004
 124411103.018 6  23674663.227    96943789.95043  23674667.9774         36.700
        22.6004
 20  2  9  7 11 30.0000000  0 10G27G26G04G23G21G29G31G09G16G14
 114029414.546 7  21699084.844    88854247.30246  21699091.3284         46.800
        41.4004
 108119562.538 8  20574469.336    84249089.98947  20574476.1454         51.000
        47.5004
 118722665.902 6  22592205.125    92511315.44344  22592207.9344         41.800
        28.1004
 121977080.576 6  23211494.016    95047194.29043  23211494.5514         37.300
        21.8004
 119246964.082 7  22691931.836    92919750.86545  22691935.2074         44.700
        34.4004
 128182882.917 6  24392391.695    99882792.00042  24392395.5784         36.100
        16.3004
 111207559.131 8  21162094.688    86655301.59747  21162097.7384         50.700
        44.2004
 129318094.770 5  24608414.656   100767387.11842  24608419.8554         34.300
        16.9004
 109313602.238 7  20801641.727    85179304.37547  20801644.6414         47.900
        42.5004
 124516656.463 6  23694748.422    97026039.26743  23694754.5124         36.200
        22.3004
 20  2  9  7 12  0.0000000  0 10G27G26G04G23G21G29G31G09G16G14
 113945419.197 7  21683100.938    88788796.39646  21683107.3404         46.500
        41.4004
 108129511.663 8  20576362.734    84256842.55647  20576369.2274         50.900
        47.2004
 118698341.451 6  22587575.172    92492361.34244  22587579.9144         41.100
        28.9004
 121940741.225 6  23204578.719    95018877.93643  23204580.8284         36.100
        22.0004
 119237995.224 7  22690224.742    92912762.14745  22690228.5554         44.200
        34.3004
 128287443.62215  24412288.219    99964267.78452  24412293.1174         33.100
        15.6004
 111259243.061 8  21171929.969    86695574.78547  21171932.2814         50.800
        44.1004
 129251295.730 5  24595704.313   100715335.95042  24595708.5474         34.800
        16.9004
 109290588.982 8  20797262.523    85161371.98147  20797265.3134         48.200
        42.6004
 124622280.343 6  23714848.320    97108343.51343  23714853.3244         39.200
        23.0004
 20  2  9  7 12 30.0000000  0 10G27G26G04G23G21G29G31G09G16G14
 113861819.888 7  21667192.844    88723654.09946  21667198.7584         47.300
        41.9004
 108139671.472 8  20578295.938    84264759.29347  20578303.0124         50.900
        47.8004
 118674584.647 6  22583054.336    92473849.55244  22583058.1334         40.800
        28.1004
 121904914.249 5  23197761.117    94990960.79043  23197762.8444         35.100
        19.6004
 119229511.080 7  22688610.453    92906151.15345  22688614.5084         45.200
        35.2004
 128392101.14515  24432205.125   100045819.03152  24432209.3404         34.300
        13.9004
 111311301.764 8  21181835.984    86736139.98747  21181839.0044         50.600
        44.1004
 129184926.567 5  24583075.234   100663619.79842  24583079.0984         33.700
        16.3004
 109267827.753 8  20792931.109    85143635.97347  20792934.3014         48.500
        43.6004
 124727972.267 6  23734961.938    97190700.76643  23734965.9734         39.800
        23.9004
 20  2  9  7 13  0.0000000  0 10G27G26G04G23G21G29G31G09G16G14
 113778617.791 7  21651359.836    88658821.31646  21651365.4494         47.000
        41.7004
 108150041.022 8  20580269.484    84272839.46747  20580276.0274         50.800
        47.4004
 118651395.606 6  22578642.000    92455780.16344  22578644.6484         40.700
        27.9004
 121869600.202 4  23191040.258    94963443.28542  23191042.5514         29.400
        15.6004
 119221511.600 7  22687088.203    92899917.80045  22687092.2194         45.200
        35.3004
 128496852.934 5  24452137.852   100127443.94642  24452142.4884         31.800
        16.3004
 111363734.203 8  21191812.688    86776996.42547  21191816.4734         49.800
        43.2004
 129118988.572 5  24570525.422   100612239.52342  24570532.4884         35.100
        16.3004
 109245317.796 8  20788647.875    85126095.74647  20788650.7464         49.500
        43.4004
 124833729.131 6  23755086.195    97273108.62844  23755090.2274         38.200
        25.0004
 20  2  9  7 13 30.0000000  0 10G27G26G04G23G21G29G31G09G16G14
 113695815.507 7  21635602.789    88594300.09446  21635608.7704         46.600
        41.1004
 108160621.041 8  20582282.852    84281083.63947  20582289.3444         50.500
        47.3004
 118628775.736 6  22574337.070    92438154.30445  22574342.1604         41.000
        30.6004
 121834801.81414  23184419.984                                          28.900

 119213998.545 7  22685659.164    92894063.47245  22685662.1644         45.500
        34.3004
 128601697.719 5  24472090.188   100209141.16242  24472095.2934         35.100
        15.6004
 111416541.106 8  21201862.320    86818144.64447  21201865.8714         49.800
        43.8004
 129053253.54714  24558059.547   100561008.63552  24558067.3244         27.300
        13.9004
 109223059.613 8  20784412.547    85108751.73347  20784414.9224         48.700
        42.9004
 124939548.556 6  23775223.711    97355565.23143  23775227.0864         39.000
        22.8004
 20  2  9  7 14  0.0000000  0 11G27G26G04G23G21G29G31G09G16G14G08
 113613412.947 7  21619922.555    88530090.33246  21619927.8284         47.400
        41.6004
 108171409.499 8  20584335.391    84289490.22547  20584342.1724         50.700
        47.0004
 118606723.845 7  22570141.109    92420970.98745  22570146.2584         42.100
        32.7004
 121800436.98315  23177894.445    94909434.82252  23177895.2774         32.600
        16.3004
 119206971.261 7  22684321.078    92888587.68745  22684324.8714         43.800
        34.4004
 128706631.275 5  24492059.398   100290907.55642  24492062.9494         34.500
        13.9004
 111469719.802 8  21211982.047    86859582.58647  21211985.1994         50.900
        44.0004
 128988188.77715  24545678.133   100510305.82552  24545685.1804         33.200
        14.8004
 109201051.132 8  20780224.188    85091602.26847  20780227.1564         48.600
        43.5004
 125045426.394 6  23795371.250    97438067.38643  23795375.9024         38.600
        23.0004
 128138549.46615  24383997.148                                          30.100

 20  2  9  7 14 30.0000000  0  9G27G26G04G21G29G31G16G14G08
 113531412.813 7  21604318.297    88466194.14546  21604324.4264         47.100
        41.6004
 108182407.190 8  20586428.102    84298059.84347  20586435.0124         50.300
        47.2004
 118585241.478 6  22566052.367    92404231.47744  22566056.5824         40.600
        28.5004
 119200431.538 7  22683076.516    92883491.81045  22683079.4304         45.100
        33.6004
 128811652.145 6  24512044.047                                          37.600

 111523271.447 8  21222172.602    86901311.13647  21222175.5274         50.800
        43.9004
 109179292.904 8  20776084.156    85074647.82847  20776086.6454         48.800
        43.7004
 125151360.565 6  23815529.852    97520613.39743  23815536.0514         38.600
        22.6004
 128031925.534 5  24363659.836                                          32.000

 20  2  9  7 15  0.0000000  0 11G27G26G04G23G21G29G31G09G16G14G08
 113449816.717 7  21588790.828    88402612.78647  21588797.0824         46.700
        42.0004
 108193613.808 8  20588560.609    84306792.28647  20588567.5204         50.400
        47.0004
 118564329.022 6  22562072.750    92387936.07844  22562076.4964         39.600
        26.4004
 121733490.662 5  23165142.172    94857385.40543  23165142.1374         35.300
        18.6004
 119194379.986 7  22681925.242    92878776.33345  22681928.5234         44.700
        35.0004
 128916758.170 6  24532044.195   100454648.75642  24532051.0474         36.400
        14.8004
 111577195.367 8  21232433.352    86943329.76747  21232437.6994         50.500
        44.2004
 128859578.188 5  24521167.203                                          31.600

 109157784.450 8  20771990.828    85057888.00547  20771993.8754         48.800
        42.7004
 125257348.122 5  23835696.641    97603200.96243  23835704.1884         33.900
        22.0004
 127924940.36714  24343348.688                                          29.100

 20  2  9  7 15 30.0000000  0 10G27G26G04G23G21G29G31G09G16G14
 113368625.204 7  21573340.516    88339346.68547  21573347.2664         47.200
        42.1004
 108205028.090 8  20590732.883    84315686.55047  20590739.5084         50.300
        47.2004
 118543985.937 6  22558202.844    92372084.28644  22558206.6294         40.800
        26.9004
 121700754.712 5  23158911.133    94831876.84442  23158911.4804         33.000
        17.4004
 119188816.413 7  22680866.336    92874441.10045  22680870.0784         43.700
        34.4004
 129021945.911 5  24552060.203   100536613.30742  24552066.5824         32.600
        16.3004
 111631490.141 8  21242766.172    86985637.37747  21242769.2274         51.000
        44.9004
 128795825.986 4  24509031.672                                          28.000

 109136524.831 7  20767945.055    85041322.07747  20767948.1414         47.600
        42.6004
 125363385.436 6  23855876.367    97685827.36143  23855881.9844         36.000
        21.5004
 20  2  9  7 16  0.0000000  0 10G27G26G04G23G21G29G31G09G16G14
 113287841.779 7  21557967.852    88276398.59246  21557974.0554         46.800
        41.3004
 108216651.626 8  20592944.875    84324743.85047  20592951.6254         50.500
        47.4004
 118524214.647 7  22554440.656    92356678.09044  22554445.1094         42.100
        29.8004
 121668538.083 5  23152779.188    94806772.97243  23152781.7154         30.100
        22.3004
 119183743.373 7  22679901.352    92870488.09145  22679904.5234         45.200
        34.5004
 129127214.905 5  24572094.148   100618641.15942  24572098.1994         35.300
        16.9004
 111686157.664 8  21253168.547    87028235.43047  21253171.6134         51.100
        43.9004
 128732517.931 5  24496986.258                                          30.800

 109115514.655 8  20763947.195    85024950.51647  20763949.9924         48.600
        43.5004
 125469471.501 6  23876064.539    97768491.70343  23876068.4804         37.400
        19.3004
 20  2  9  7 16 30.0000000  0 10G27G26G04G23G21G29G31G09G16G14
 113207467.419 7  21542673.547    88213769.25447  21542679.4614         47.600
        42.1004
 108228483.588 8  20595196.422    84333963.56447  20595203.0904         50.500
        47.3004
 118505014.750 6  22550786.352    92341717.15144  22550791.2274         41.500
        29.4004
 121636831.84715  23146745.727    94782068.83153  23146749.5634         31.500
        18.3004
 119179160.806 7  22679029.055    92866917.29745  22679032.9694         44.600
        35.1004
 129232562.201 5  24592138.234   100700729.98542  24592145.4344         31.600
        16.3004
 111741196.564 8  21263642.633    87071122.87347  21263645.5904         51.300
        43.9004
 128669655.505 5  24485022.523   100262106.25442  24485028.7194         34.400
        15.6004
 109094753.355 8  20759996.695    85008772.88447  20759999.3984         48.400
        43.2004
 125575602.683 6  23896259.898    97851191.24543  23896265.1134         36.100
        20.4004
 20  2  9  7 17  0.0000000  0 10G27G26G04G23G21G29G31G09G16G14
 113127502.399 8  21527457.117    88151458.87947  21527462.7274         48.200
        42.7004
 108240522.384 8  20597487.195    84343344.45547  20597493.8484         51.000
        47.2004
 118486385.352 6  22547241.352    92327200.76544  22547246.4884         40.700
        29.6004
 121605653.407 5  23140816.672    94757774.03143  23140817.2934         34.400
        21.5004
 119175068.458 7  22678250.453    92863728.46446  22678253.9494         44.900
        36.1004
 129337988.530 6  24612203.594   100782863.22842  24612206.1214         36.900
        17.8004
 111796605.020 8  21274186.219    87114298.27447  21274189.2934         51.200
        43.9004
 128607239.016 6  24473145.883                                          36.600

 109074239.345 8  20756092.398    84992787.94747  20756095.6174         48.200
        43.0004
 125681774.794 6  23916464.258    97933922.58043  23916468.8324         37.500
        20.9004
 20  2  9  7 17 30.0000000  0 10G27G26G04G23G21G31G09G16G14G08
 113047947.913 7  21512318.328    88089468.38947  21512324.2034         47.600
        42.7004
 108252767.417 8  20599817.094    84352886.05047  20599824.3364         50.000
        47.0004
 118468326.458 6  22543804.797    92313128.89045  22543810.0554         41.300
        30.4004
 121574918.28715  23134979.664    94733713.10153  23134982.2384         32.300
        18.3004
 119171466.585 7  22677565.398    92860921.82246  22677568.5984         45.400
        36.0004
 111852382.334 8  21284800.211    87157761.09947  21284803.7544         50.100
        43.7004
 128545057.25415  24461353.008                                          32.300

 109053971.820 8  20752236.055    84976995.07347  20752238.9144         48.400
        43.3004
 125787984.928 6  23936676.039    98016683.58943  23936680.5984         36.900
        22.6004
 127393806.41815  24242277.258                                          32.000

 20  2  9  7 18  0.0000000  0 11G27G26G04G23G21G29G31G09G16G14G08
 112968806.140 7  21497258.039    88027799.50247  21497264.0944         47.600
        43.0004
 108265219.068 8  20602186.656    84362588.64547  20602193.9694         49.900
        47.0004
 118450839.031 7  22540477.156    92299502.30945  22540481.3554         43.200
        30.7004
 121544857.148 5  23129244.836    94710400.53143  23129246.0204         34.700
        18.3004
 119168356.335 7  22676973.875    92858498.27745  22676976.2624         45.200
        35.7004
 129549051.926 5  24652365.367                                          34.600

 111908528.465 8  21295484.180    87201511.32147  21295488.0354         50.700
        43.9004
 128483751.21214  24449645.047                                          28.600

 109033951.027 8  20748426.063    84961394.46047  20748428.9144         48.500
        43.6004
 125894230.757 6  23956893.578    98099472.43443  23956898.9454         37.600
        22.5004
 127288349.048 6  24222157.211    99185705.86042  24222162.7584         36.000
        17.8004
 20  2  9  7 18 30.0000000  0 11G27G26G04G23G21G29G31G09G16G14G08
 112890079.720 7  21482276.375    87966454.25047  21482282.2974         47.200
        42.3004
 108277878.243 8  20604595.766    84372452.93647  20604602.5084         50.400
        47.2004
 118433924.499 7  22537258.242    92286322.14745  22537263.4454         42.500
        30.6004
 121515241.254 6  23123610.703    94687323.22743  23123611.1804         38.100
        20.4004
 119165739.333 7  22676475.102    92856459.06045  22676479.1174         44.500
        35.4004
 129654686.102 5  24672468.453                                          35.500

 111965044.282 8  21306239.414    87245549.59447  21306242.8014         50.400
        43.7004
 128422466.72015  24438024.805                                          30.500

 109014177.946 8  20744663.195    84945986.87447  20744666.0204         48.500
        43.4004
 126000510.430 6  23977118.688    98182287.63643  23977122.9964         38.000
        22.2004
 127182786.737 5  24202067.289    99103449.59442  24202074.5474         35.700
        16.3004
 20  2  9  7 19  0.0000000  0 11G27G26G04G23G21G29G31G09G16G14G08
 112811771.366 7  21467375.156    87905434.77547  21467380.8954         47.500
        42.6004
 108290745.876 8  20607044.344    84382479.67047  20607051.0824         50.300
        47.2004
 118417584.287 7  22534149.305    92273589.54845  22534154.1884         43.300
        31.7004
 121486149.720 6  23118074.516    94664654.46043  23118075.7304         39.000
        22.5004
 119163617.399 7  22676071.773    92854805.62046  22676075.3754         45.500
        36.3004
 129760165.88415  24692580.492   101111838.38252  24692585.5744         30.500
        14.8004
 112021930.340 8  21317064.289    87289876.37547  21317067.6174         49.600
        43.9004
 128361865.73015  24426492.820   100022255.94352  24426498.4144         33.000
        13.9004
 108994653.171 8  20740947.984    84930772.77847  20740951.0434         48.200
        43.8004
 126106822.452 6  23997349.828    98265128.08743  23997354.0944         37.600
        21.5004
 127077101.52115  24182010.320    99021149.83652  24182018.0784         32.400
        13.9004
 20  2  9  7 19 30.0000000  0 10G27G26G04G23G21G31G09G16G14G08
 112733880.804 7  21452552.727    87844740.84647  21452558.7934         47.700
        42.7004
 108303820.007 8  20609532.383    84392667.30647  20609539.1914         50.700
        47.7004
 118401816.886 7  22531148.211    92261303.21245  22531153.4654         42.700
        31.5004
 121457581.503 6  23112636.680    94642393.51443  23112638.8244         36.900
        20.9004
 119161989.509 7  22675761.258    92853537.15645  22675765.8164         44.100
        35.0004
 112079184.662 8  21327959.242    87334490.11347  21327962.8324         50.000
        43.9004
 128301921.116 5  24415047.922                                          31.600

 108975374.589 8  20737279.266    84915750.51247  20737282.4264         48.400
        43.4004
 126213162.407 6  24017584.734    98347990.22043  24017591.1054         36.800
        20.9004
 126972184.179 5  24161988.844    98939343.92442  24161995.4104         33.800
        13.9004
 20  2  9  7 20  0.0000000  0  9G27G26G04G23G21G31G16G14G08
 112656409.557 7  21437810.828    87784373.68347  21437816.6254         47.800
        43.2004
 108317100.431 8  20612059.336    84403015.68347  20612066.4774         50.300
        47.3004
 118386622.658 7  22528256.719    92249463.53244  22528261.1804         42.900
        29.6004
 121429537.585 6  23107301.383    94620541.15543  23107304.3954         37.300
        21.8004
 119160856.187 7  22675545.352    92852654.04145  22675548.7854         44.400
        34.6004
 112136806.587 8  21338924.070    87379390.30447  21338928.0904         49.800
        43.4004
 108956342.131 8  20733657.680    84900920.04747  20733660.3164         48.300
        43.5004
 126319527.394 5  24037825.406    98430871.92043  24037831.3364         33.800
        19.3004
 126866849.60615  24142000.711    98857326.69252  24142010.7934         31.300
        15.6004
 20  2  9  7 20 30.0000000  0 10G27G26G04G23G21G29G31G16G14G08
 112579359.262 7  21423148.430    87724334.51647  21423154.4494         47.900
        43.1004
 108330587.033 8  20614625.688    84413524.73747  20614632.6524         49.900
        46.8004
 118372001.681 7  22525474.727    92238070.59245  22525479.5704         43.200
        31.4004
 121402018.197 6  23102064.125    94599097.47543  23102067.5984         38.000
        20.4004
 119160218.015 7  22675424.711    92852156.79945  22675426.9964         45.300
        34.5004
 130077653.24515  24752996.328                                          31.900

 112194795.698 8  21349959.336    87424576.61747  21349962.7194         49.200
        44.1004
 108937554.916 8  20730082.367    84886280.66547  20730085.3714         48.100
        43.8004
 126425914.497 5  24058068.742    98513770.71043  24058075.8094         33.700
        19.3004
 126762286.242 5  24122048.391    98775787.41742  24122054.8404         34.800
        14.8004
 20  2  9  7 21  0.0000000  0  9G27G26G04G23G21G29G31G16G14
 112502730.726 7  21408566.133    87664623.97647  21408572.4144         47.300
        42.5004
 108344279.007 8  20617231.086    84424193.80747  20617238.0944         49.800
        46.7004
 118357953.770 7  22522801.117    92227124.18045  22522806.4844         43.800
        33.7004
 121375023.666 6  23096929.617    94578062.72143  23096929.9384         40.900
        22.8004
 119160075.049 7  22675397.109    92852045.40945  22675400.1564         46.100
        35.1004
 130183596.73114  24773156.703                                          28.000

 112253150.777 8  21361064.047    87470048.07947  21361067.6094         50.000
        43.9004
 108919012.150 7  20726553.813    84871831.78847  20726557.0274         47.500
        43.7004
 126532320.69315  24078315.914    98596684.53453  24078323.0704         32.200
        19.0004
 20  2  9  7 21 30.0000000  0 10G27G26G04G23G21G29G31G09G16G14
 112426525.025 7  21394064.969    87605242.93347  21394071.1524         46.400
        42.7004
 108358175.810 8  20619875.875    84435022.49547  20619882.8364         50.400
        47.2004
 118344478.495 7  22520237.289    92216623.96645  22520241.9734         44.200
        33.0004
 121348554.152 6  23091891.039    94557437.08443  23091894.0044         40.000
        22.3004
 119160427.374 7  22675463.648    92852319.98345  22675467.0984         43.800
        34.2004
 130289816.013 5  24793327.305   101524564.52142  24793334.6254         33.200
        16.9004
 112311870.902 8  21372238.289    87515804.01647  21372241.5824         50.000
        43.8004
 128065855.225 5  24370134.766    99791647.19542  24370139.5394         31.300
        15.6004
 108900713.336 7  20723071.438    84857572.97347  20723074.4454         47.600
        42.8004
 126638742.587 5  24098569.406    98679610.53543  24098575.0124         35.700
        21.3004
 20  2  9  7 22  0.0000000  0 11G27G26G04G23G21G29G31G09G16G14G08
 112350744.309 7  21379644.078    87546193.02347  21379650.4064         46.700
        42.7004
 108372277.836 8  20622559.164    84446011.08847  20622566.0274         50.300
        46.7004
 118331576.797 7  22517781.758    92206570.68245  22517786.9654         44.200
        33.4004
 121322610.789 6  23086953.852    94537221.50944  23086956.4654         39.900
        24.2004
 119161275.951 7  22675625.570    92852981.20145  22675628.6454         44.300
        34.0004
 130395654.28615  24813509.914   101607023.70352  24813514.8874         32.400
        13.9004
 112370956.022 8  21383481.539    87561844.37247  21383485.2114         50.500
        43.2004
 128008008.311 4  24359124.836    99746571.62842  24359130.7304         28.000
        15.6004
 108882658.623 7  20719635.945    84843504.37747  20719639.1994         47.500
        43.4004
 126745178.141 5  24118823.898    98762547.10543  24118829.9924         35.800
        22.2004
 126448506.90615  24062392.742                                          32.000

 20  2  9  7 22 30.0000000  0 11G27G26G04G23G21G29G31G09G16G14G08
 112275389.717 8  21365305.227    87487475.18047  21365310.7734         48.000
        43.5004
 108386584.727 8  20625281.727    84457159.32547  20625288.4694         50.000
        46.4004
 118319248.487 7  22515436.625    92196964.19845  22515440.2504         45.100
        32.8004
 121297193.771 6  23082117.867    94517416.05744  23082120.5514         41.100
        27.3004
 119162621.307 7  22675881.508    92854029.51645  22675884.3914         44.700
        34.2004
 130501754.06715  24833700.031                                          31.900

 112430405.560 8  21394794.219    87608168.66247  21394797.8554         49.800
        43.1004
 127950627.749 5  24348206.227    99701859.45942  24348211.6844         32.900
        16.9004
 108864847.600 7  20716246.602    84829625.66847  20716249.8244         47.900
        43.0004
 126851624.218 5  24139079.961    98845491.96043  24139086.2894         35.800
        22.6004
 126344626.84115  24042572.336    98450354.52352  24042582.0204         31.800
        15.6004
 20  2  9  7 23  0.0000000  0 11G27G26G04G23G21G29G31G09G16G14G08
 112200462.958 7  21351046.523    87429090.71247  21351051.9304         47.600
        42.3004
 108401096.527 8  20628043.375    84468467.21147  20628050.1454         50.300
        46.8004
 118307493.937 7  22513199.289    92187804.76845  22513204.1454         42.600
        32.6004
 121272303.986 6  23077379.727    94498021.46043  23077382.9804         36.600
        22.6004
 119164464.052 7  22676232.398    92855465.44745  22676234.9534         45.300
        34.6004
 130607907.05514  24853900.273                                          29.600

 112490219.290 8  21406176.203    87654776.74947  21406180.3754         49.500
        43.1004
 127893715.592 5  24337374.555    99657512.29742  24337382.3164         32.000
        17.8004
 108847280.139 7  20712903.484    84815936.75447  20712906.5124         47.700
        42.7004
 126958078.523 6  24159338.328    98928443.15443  24159343.1524         38.500
        23.5004
 126240411.19515  24022793.445    98369187.57052  24022802.2344         32.600
        17.8004
 20  2  9  7 23 30.0000000  0 10G27G26G04G23G21G31G09G16G14G08
 112125965.177 7  21336869.961    87371040.52047  21336876.1844         47.000
        42.7004
 108415812.895 8  20630844.000    84479934.51547  20630850.6844         50.800
        47.3004
 118296312.937 7  22511071.695    92179092.33145  22511075.6724         42.700
        32.6004
 121247941.787 6  23072744.008    94479037.93143  23072748.3204         38.200
        22.3004
 119166804.416 7  22676677.617    92857289.13745  22676681.0314         45.400
        34.4004
 112550396.278 8  21417628.117    87701667.88847  21417631.6214         50.300
        43.6004
 127837273.215 6  24326636.719    99613531.32743  24326642.8754         37.400
        19.9004
 108829955.640 8  20709606.672    84802437.15647  20709609.6454         48.200
        42.7004
 127064537.913 6  24179596.680    99011398.35743  24179601.6024         37.200
        22.0004
 126136659.51115  24003050.156    98288326.74752  24003055.1954         33.200
        14.8004
 20  2  9  7 24  0.0000000  0 10G27G26G04G23G21G31G09G16G14G08
 112051898.587 7  21322775.391    87313326.30847  21322781.7624         47.300
        43.1004
 108430734.356 8  20633683.211    84491561.64547  20633690.1954         50.400
        47.1004
 118285706.342 7  22509053.141    92170827.45945  22509058.1914         43.200
        33.6004
 121224108.372 6  23068210.273    94460466.42043  23068211.6134         40.100
        23.9004
 119169643.259 7  22677217.734    92859501.22645  22677221.1884         45.100
        35.2004
 112610936.850 8  21429148.477    87748842.34047  21429151.9774         50.500
        43.3004
 127781303.397 6  24315985.063    99569918.41742  24315990.4144         36.600
        17.8004
 108812874.381 8  20706356.570    84789127.09247  20706359.8484         48.800
        43.7004
 127171000.282 6  24199855.961    99094355.85543  24199861.1254         37.900
        21.8004
 126033083.75015  23983340.344    98207620.85552  23983345.9924         32.800
        15.6004
 20  2  9  7 24 30.0000000  0 11G27G26G04G23G21G29G31G09G16G14G08
 111978263.078 8  21308763.539    87255947.99547  21308769.1914         48.100
        43.7004
 108445859.381 8  20636561.414    84503347.37247  20636568.5394         50.300
        47.1004
 118275672.717 7  22507143.930    92163009.07245  22507148.1644         45.100
        33.7004
 121200803.274 6  23063774.563    94442306.55243  23063775.6334         39.400
        23.9004
 119172979.911 7  22677853.219    92862101.22745  22677856.5434         45.200
        35.3004
 130926845.879 5  24914557.422                                          31.000

 112671838.809 8  21440737.234    87796298.38947  21440740.9884         50.000
        43.0004
 127725636.86215  24305422.492    99526498.48352  24305429.3794         34.600
        14.8004
 108796034.729 8  20703152.117    84776005.29847  20703154.8914         48.800
        43.7004
 127277461.653 6  24220114.641    99177312.56844  24220120.5784         37.600
        24.6004
 125929969.575 5  23963667.109    98127234.17542  23963674.3634         33.500
        17.4004
 20  2  9  7 25  0.0000000  0 11G27G26G04G23G21G29G31G09G16G14G08
 111905060.167 8  21294833.734    87198906.79447  21294839.0044         48.500
        43.2004
 108461187.891 8  20639478.391    84515291.65847  20639485.2934         50.200
        46.8004
 118266212.207 7  22505343.469    92155637.23645  22505348.5004         44.300
        34.9004
 121178026.455 6  23059441.047    94424558.42344  23059442.1334         40.700
        24.2004
 119176814.626 7  22678583.109    92865089.34745  22678586.5824         45.400
        35.2004
 131032982.64915  24934789.469                                          32.300

 112733101.787 8  21452395.930    87844035.78247  21452398.9534         50.300
        43.4004
 127670783.485 5  24294952.078    99483798.87842  24294956.1054         34.700
        13.9004
 108779436.753 8  20699993.266    84763071.82247  20699996.2424         48.200
        43.5004
 127383919.592 6  24240374.156    99260266.68443  24240379.0784         38.400
        23.6004
 125826785.491 6  23944033.359    98046831.08943  23944039.5554         37.700
        18.6004
 20  2  9  7 25 30.0000000  0 11G27G26G04G23G21G29G31G09G16G14G08
 111832292.337 7  21280985.758    87142204.61647  21280991.6914         47.500
        43.0004
 108476720.906 8  20642434.078    84527395.31747  20642440.9844         50.200
        46.8004
 118257325.885 7  22503653.141    92148712.80845  22503657.6994         45.700
        34.7004
 121155779.823 6  23055206.289    94407223.42144  23055209.7034         41.200
        25.6004
 119181148.953 7  22679407.234    92868466.75045  22679411.4924         44.100
        35.4004
 131139389.60214  24955038.039                                          29.400

 112794726.301 8  21464122.266    87892054.85947  21464126.2114         50.300
        43.3004
 127616237.982 6  24284574.164    99441295.93142  24284579.3094         37.000
        15.6004
 108763081.206 8  20696880.789    84750327.24547  20696884.1334         48.100
        43.4004
 127490372.395 6  24260631.773    99343216.73943  24260637.2074         39.200
        21.3004
 125723797.318 6  23924435.727    97966580.68243  23924442.9414         37.900
        20.6004
 20  2  9  7 26  0.0000000  0 10G27G26G04G23G21G31G09G16G14G08
 111759960.334 7  21267222.039    87085842.04447  21267227.1564         47.600
        43.2004
 108492457.679 8  20645428.781    84539657.74147  20645435.5474         50.400
        47.2004
 118249013.094 7  22502070.211    92142235.29545  22502075.3134         44.100
        33.3004
 121134062.795 7  23051074.625    94390301.05244  23051077.4344         43.100
        27.9004
 119185982.608 7  22680327.109    92872233.22845  22680331.4494         44.800
        35.5004
 112856710.817 8  21475917.648    87940354.47147  21475921.2664         50.700
        43.5004
 127562170.764 5  24274284.070    99399165.64042  24274289.0204         35.000
        17.4004
 108746966.618 8  20693814.797    84737770.43247  20693817.3954         48.300
        43.6004
 127596816.528 6  24280886.727    99426159.99642  24280892.2344         37.300
        17.4004
 125621005.998 5  23904874.570    97886483.69942  23904882.7114         35.400
        17.8004
 20  2  9  7 26 30.0000000  0 10G27G26G04G23G21G31G09G16G14G08
 111688065.362 8  21253540.602    87029820.00847  21253546.4844         48.100
        43.6004
 108508397.979 8  20648462.500    84552078.78247  20648468.9064         49.000
        45.9004
 118241273.664 7  22500597.648    92136204.56845  22500602.4304         44.200
        33.6004
 121112875.780 7  23047043.383    94373791.68644  23047044.3754         44.100
        27.8004
 119191315.796 7  22681341.703    92876388.96645  22681345.8284         44.700
        35.4004
 112919054.867 8  21487781.195    87988934.24147  21487784.9104         50.200
        42.8004
 127508583.459 5  24264087.242    99357409.27842  24264093.8204         33.500
        16.3004
 108731092.691 8  20690793.641    84725401.15147  20690796.5824         48.700
        43.6004
 127703249.355 5  24301139.813    99509094.51242  24301145.9384         33.700
        16.9004
 125518413.299 5  23885351.797    97806541.40742  23885358.6414         34.700
        17.8004
 20  2  9  7 27  0.0000000  0 10G27G26G04G23G21G31G09G16G14G08
 111616608.750 8  21239942.336    86974139.55147  21239948.7384         48.100
        43.7004
 108524541.694 8  20651534.250    84564658.28647  20651541.2194         48.900
        45.4004
 118234107.540 7  22499233.852    92130620.58045  22499238.3714         42.100
        32.4004
 121092219.326 7  23043111.258    94357695.72944  23043112.6994         42.500
        26.4004
 119197149.058 7  22682451.898    92880934.38745  22682454.9494         44.000
        34.4004
 112981758.027 8  21499713.391    88037793.83747  21499716.9264         50.200
        43.2004
 127455477.555 5  24253981.242    99316028.07542  24253988.0004         33.600
        16.3004
 108715459.543 8  20687818.750    84713219.48747  20687821.9304         48.000
        43.5004
 127809668.29115  24321391.414    99592018.12152  24321396.9454         33.600
        14.8004
 125415748.17015  23865865.289    97726590.68752  23865873.5124         33.200
        17.4004
 20  2  9  7 27 30.0000000  0 11G27G26G04G23G21G29G31G09G16G14G08
 111545591.071 7  21226428.516    86918801.11647  21226434.1254         47.800
        43.8004
 108540887.971 8  20654645.023    84577395.63447  20654651.8244         49.100
        45.6004
 118227513.786 7  22497979.680    92125482.59645  22497984.1454         43.100
        32.9004
 121072093.057 7  23039282.250    94342012.92944  23039283.0124         44.000
        27.5004
 119203481.718 7  22683657.359    92885868.93845  22683660.4344         44.500
        34.9004
 131565126.54815  25036053.086                                          30.500

 113044818.532 8  21511713.680    88086931.87847  21511717.0554         50.200
        43.2004
 127402854.078 5  24243967.164    99275022.74442  24243974.6374         33.700
        17.4004
 108700066.091 7  20684889.508    84701224.59047  20684892.3594         47.800
        43.1004
 127915948.83315  24341637.656                                          30.800

 125313830.656 6  23846419.961    97647126.51143  23846427.4264         36.900
        21.1004
 20  2  9  7 28  0.0000000  0 10G27G26G04G23G21G29G31G09G16G08
 111475014.133 8  21212998.195    86863806.11547  21213004.0434         48.100
        43.9004
 108557437.224 8  20657794.203    84590291.16347  20657801.0124         48.600
        45.3004
 118221492.878 7  22496834.039    92120790.97945  22496838.6644         45.000
        35.0004
 121052497.858 7  23035553.461    94326743.89144  23035554.3134         42.200
        27.7004
 119210314.678 7  22684957.430    92891193.34045  22684960.8594         45.000
        34.9004
 131671639.34315  25056321.797                                          31.300

 113108236.251 8  21523781.461    88136348.27347  21523785.0664         49.600
        43.2004
 127350714.966 5  24234045.320    99234394.89843  24234053.8484         33.500
        19.3004
 108684912.274 8  20682005.813    84689416.43447  20682008.8134         48.000
        43.2004
 125211843.701 6  23827012.656    97567656.20543  23827021.3094         37.100
        21.7004
 20  2  9  7 28 30.0000000  0 10G27G26G04G23G21G29G31G09G16G08
 111404879.226 8  21199651.742    86809155.55847  21199657.7894         48.500
        43.7004
 108574189.391 8  20660981.813    84603344.79847  20660988.8444         48.800
        45.4004
 118216044.633 7  22495797.336    92116545.60045  22495802.7504         46.200
        35.3004
 121033433.990 7  23031925.930    94311888.94044  23031926.2384         43.400
        27.0004
 119217647.941 7  22686353.016    92896907.58645  22686356.4844         45.100
        35.0004
 131778168.15014  25076593.555                                          28.900

 113172010.572 8  21535917.398    88186042.53047  21535921.4534         50.300
        43.5004
 127299061.843 5  24224216.977    99194145.75443  24224224.5704         35.000
        19.6004
 108669998.115 8  20679168.078    84677795.02247  20679170.8204         48.700
        43.9004
 125110062.516 6  23807644.008    97488346.22143  23807651.7034         37.900
        23.0004
 20  2  9  7 29  0.0000000  0 10G27G26G04G23G21G29G31G09G16G08
 111335188.765 8  21186390.352    86754851.33247  21186396.0904         48.700
        44.5004
 108591145.535 8  20664208.617    84616557.36747  20664215.3874         49.700
        45.6004
 118211170.000 7  22494869.953    92112747.18845  22494875.2384         45.700
        34.3004
 121014902.881 6  23028398.969    94297449.07544  23028399.0314         41.800
        26.2004
 119225483.040 7  22687843.688    92903012.87845  22687847.2194         44.500
        34.7004
 131884758.82515  25096877.086                                          33.300

 113236142.165 8  21548121.203    88236015.17947  21548124.7624         50.000
        43.0004
 127247897.491 6  24214481.727    99154277.53443  24214485.2854         38.100
        19.0004
 108655324.173 8  20676375.430    84666360.80647  20676378.6954         48.100
        43.6004
 125008489.621 6  23788315.141    97409198.60344  23788322.5704         38.600
        25.6004
 20  2  9  7 29 30.0000000  0 10G27G26G04G23G21G29G31G09G16G08
 111265940.249 8  21173212.523    86700891.47147  21173218.8164         48.000
        43.7004
 108608301.784 8  20667472.977    84629925.90547  20667480.0394         48.400
        45.3004
 118206865.019 7  22494050.188    92109392.67245  22494055.0394         43.700
        32.9004
 120996901.047 6  23024972.555    94283421.71944  23024976.4844         41.200
        26.5004
 119233816.714 7  22689429.406    92909506.67145  22689432.3984         44.800
        34.8004
 131991344.04015  25117159.578                                          30.700

 113300626.771 8  21560391.773    88286262.91547  21560395.6724         50.700
        42.6004
 127197219.904 5  24204836.070    99114788.44842  24204842.3054         33.700
        16.3004
 108640886.904 8  20673628.609    84655110.98147  20673631.2704         49.100
        43.1004
 124907123.193 6  23769026.094    97330211.83143  23769032.5704         38.600
        22.8004
 20  2  9  7 30  0.0000000  0 10G27G26G04G23G21G29G31G09G16G08
 111197137.627 8  21160119.992    86647279.06647  21160126.2814         49.200
        44.3004
 108625660.769 8  20670776.539    84643452.39347  20670783.3524         48.300
        45.0004
 118203132.172 7  22493339.727    92106483.96245  22493344.9224         44.500
        33.1004
 120979431.503 7  23021649.164    94269809.07144  23021649.9104         43.000
        27.8004
 119242651.444 7  22691110.516    92916390.89145  22691112.9694         45.400
        35.0004
 132097943.45914  25137444.773                                          29.400

 113365466.010 8  21572730.469    88336786.99147  21572733.9264         50.500
        42.7004
 127146862.56915  24195285.406                                          33.300

 108626687.999 7  20670925.867    84644046.92947  20670929.3954         47.800
        42.6004
 124805967.771 6  23749777.797    97251389.47644  23749783.2974         39.400
        24.1004
 20  2  9  7 30 30.0000000  0  9G27G26G04G23G21G31G09G16G08
 111128783.536 8  21147112.203    86594016.15047  21147118.0514         49.000
        44.0004
 108643223.811 8  20674118.719    84657137.88947  20674125.8364         48.300
        45.6004
 118199972.598 7  22492738.992    92104021.93145  22492744.5314         43.500
        35.3004
 120962495.856 7  23018426.297    94256612.44644  23018428.3484         42.300
        28.8004
 119251988.980 7  22692887.930    92923666.92545  22692890.5594         46.500
        34.5004
 113430660.557 8  21585136.648    88387587.92847  21585140.4494         50.700
        42.4004
 127097338.458 6  24185830.508    99036957.60542  24185834.9344         37.000
        16.9004
 108612729.167 7  20668269.445    84633169.91947  20668272.6214         47.000
        43.2004
 124705026.289 6  23730567.859    97172733.86243  23730575.1454         37.300
        22.9004
 20  2  9  7 31  0.0000000  0  9G27G26G04G23G21G31G09G16G08
 111060876.516 8  21134190.375    86541101.61647  21134196.1454         48.900
        44.0004
 108660988.381 8  20677499.664    84670980.40347  20677506.1414         49.100
        45.8004
 118197383.440 7  22492246.078    92102004.38945  22492251.6134         44.800
        33.7004
 120946091.682 7  23015304.008    94243829.96644  23015306.7304         42.000
        25.8004
 119261826.741 7  22694759.414    92931332.73445  22694763.4964         45.200
        34.8004
 113496207.210 8  21597609.445    88438663.24647  21597613.5394         49.800
        42.2004
 127048137.751 6  24176468.039    98998619.40242  24176472.9414         39.700
        17.8004
 108599007.241 7  20665658.406    84622477.52047  20665661.5984         47.500
        42.8004
 124604297.971 5  23711399.898    97094244.31443  23711407.4774         33.900
        22.6004
 20  2  9  7 31 30.0000000  0  9G27G26G04G23G21G31G09G16G08
 110993417.858 8  21121353.234    86488536.44247  21121359.6254         49.100
        44.7004
 108678954.220 8  20680918.102    84684979.77147  20680924.4924         48.900
        45.3004
 118195364.362 6  22491860.984    92100431.05045  22491865.8014         41.400
        32.8004
 120930218.979 6  23012283.156    94231461.62544  23012284.9654         41.600
        29.3004
 119272164.946 7  22696727.445    92939388.47545  22696730.6994         45.400
        35.4004
 113562105.222 8  21610149.477    88490012.32947  21610153.1094         49.700
        42.8004
 126999431.192 6  24167198.586    98960666.28743  24167206.3164         39.400
        19.3004
 108585522.263 7  20663092.313    84611969.74647  20663095.7074         47.800
        43.0004
 124503784.790 6  23692272.508    97015922.43543  23692279.4304         36.800
        22.5004
 20  2  9  7 32  0.0000000  0 10G27G26G04G23G21G29G31G09G16G08
 110926408.445 8  21108601.117    86436321.33947  21108607.2154         48.100
        43.5004
 108697121.095 8  20684374.766    84699135.79147  20684381.9064         48.400
        45.3004
 118193914.791 6  22491586.508    92099301.57345  22491590.5084         41.800
        33.0004
 120914877.944 7  23009365.398    94219507.58445  23009366.2464         43.500
        30.0004
 119283003.406 7  22698789.703    92947834.03245  22698792.6764         44.900
        34.7004
 132524529.91814  25218621.477                                          29.400

 113628353.700 8  21622756.703    88541634.50447  21622760.1294         49.700
        42.6004
 126951219.843 6  24158024.703    98923098.98642  24158029.8404         38.600
        16.9004
 108572273.296 8  20660571.578    84601645.90547  20660574.1844         48.200
        43.6004
 124403487.855 6  23673187.469    96937769.07744  23673193.8714         37.900
        25.8004
 20  2  9  7 32 30.0000000  0  9G27G26G04G23G21G31G09G16G08
 110859849.990 8  21095935.836    86384457.59947  21095941.6994         49.600
        44.9004
 108715489.498 8  20687870.633    84713448.83447  20687877.1994         49.800
        45.6004
 118193034.981 7  22491419.172    92098616.00745  22491423.4964         44.100
        34.6004
 120900069.262 7  23006547.625    94207968.29645  23006548.9384         44.500
        32.3004
 119294342.926 7  22700947.305    92956670.04645  22700950.5634         45.700
        35.3004
 113694952.634 8  21635430.523    88593529.77447  21635433.3204         50.900
        42.9004
 126903505.699 6  24148945.102    98885919.18242  24148949.0634         37.000
        15.6004
 108559261.067 8  20658095.281    84591506.51947  20658097.9534         48.200
        43.1004
 124303409.624 6  23654142.688    96859786.04844  23654149.6954         39.400
        27.4004
 20  2  9  7 33  0.0000000  0  9G27G26G04G23G21G31G09G16G08
 110793744.348 8  21083356.383    86332946.72947  21083362.5664         50.700
        45.3004
 108734060.100 8  20691404.422    84727919.44347  20691411.1374         49.300
        45.3004
 118192725.229 7  22491359.500    92098374.63345  22491364.0594         45.800
        34.6004
 120885793.763 7  23003829.992    94196844.56545  23003833.7344         42.100
        31.8004
 119306184.090 7  22703200.789    92965896.94345  22703204.0594         45.300
        34.7004
 113761901.347 8  21648170.156    88645697.58647  21648173.2384         51.200
        42.9004
 126856290.979 6  24139960.969    98849128.62142  24139965.6524         37.000
        16.3004
 108546486.055 8  20655664.039    84581551.98247  20655667.1994         48.200
        43.0004
 124203552.524 6  23635139.234    96781975.36744  23635148.9804         37.400
        26.8004
 20  2  9  7 33 30.0000000  0  9G27G26G04G23G21G31G09G16G08
 110728091.742 8  21070863.680    86281788.89447  21070869.3094         51.100
        45.9004
 108752832.022 8  20694976.813    84742546.92247  20694983.4104         49.300
        45.8004
 118192984.211 7  22491409.102    92098576.44145  22491414.0634         44.500
        34.9004
 120872050.551 6  23001214.508    94186135.57345  23001217.0864         41.800
        30.5004
 119318525.976 7  22705549.000    92975514.02245  22705552.2584         44.300
        33.7004
 113829198.673 8  21660975.961    88698137.05847  21660979.8054         50.700
        42.4004
 126809576.270 5  24131070.977    98812727.42942  24131076.3954         35.200
        16.3004
 108533946.875 7  20653277.938    84571781.19847  20653280.9494         47.300
        42.9004
 124103917.355 6  23616179.523    96704337.65344  23616187.9224         37.700
        27.5004
 20  2  9  7 34  0.0000000  0  9G27G26G04G23G21G31G09G16G08
 110662892.674 8  21058456.094    86230984.43447  21058462.3794         50.600
        45.6004
 108771804.508 8  20698586.867    84757330.68347  20698593.8134         49.500
        45.8004
 118193810.917 7  22491566.352    92099220.61545  22491571.2854         44.900
        35.0004
 120858839.263 7  22998701.266    94175841.09745  22998703.9844         43.200
        31.9004
 119331368.163 7  22707992.945    92985520.92245  22707996.0864         44.500
        33.6004
 113896843.127 8  21673848.484    88750847.02347  21673852.4804         51.100
        42.8004
 126763361.95114  24122273.672                                          27.300

 108521642.993 7  20650936.305    84562193.76447  20650939.4534         47.000
        42.6004
 124004505.022 6  23597263.297    96626873.59044  23597269.4224         39.700
        26.0004
 20  2  9  7 34 30.0000000  0  9G27G26G04G23G21G31G09G16G08
 110598149.263 8  21046135.898    86180535.04447  21046142.0204         51.100
        45.8004
 108790978.653 8  20702235.648    84772271.59147  20702242.4144         48.800
        45.2004
 118195205.904 7  22491831.563    92100307.62345  22491836.8874         44.700
        35.5004
 120846160.810 7  22996289.289    94165961.78145  22996289.9414         43.900
        30.8004
 119344711.598 7  22710532.523    92995918.42645  22710535.4304         45.600
        35.0004
 113964834.886 8  21686786.680    88803827.60047  21686790.6174         50.800
        42.5004
 126717651.105 5  24113578.008                                          33.300

 108509574.602 7  20648640.063    84552789.84347  20648642.7194         47.300
        42.4004
 123905318.432 6  23578388.094    96549585.40344  23578394.4144         39.200
        26.7004
 20  2  9  7 35  0.0000000  0  9G27G26G04G23G21G31G09G16G08
 110533861.815 8  21033902.656    86130440.96347  21033908.0044         51.500
        45.7004
 108810353.585 8  20705922.219    84787368.92847  20705928.9264         48.800
        45.2004
 118197167.905 7  22492205.063    92101836.47845  22492209.9964         43.500
        34.2004
 120834014.591 7  22993976.305    94156497.15245  22993978.6604         42.900
        32.1004
 119358555.412 7  22713165.750    93006705.85045  22713169.9454         44.600
        34.5004
 114033172.500 8  21699790.883    88857077.69047  21699794.3594         50.600
        42.3004
 126672443.785 5  24104976.789    98705885.00142  24104984.1174         35.400
        14.8004
 108497741.034 7  20646388.000    84543568.90047  20646391.0594         47.500
        42.6004
 123806358.443 6  23559556.828    96472473.79044  23559562.9494         39.100
        26.2004
 20  2  9  7 35 30.0000000  0  9G27G26G04G23G21G31G09G16G08
 110470031.593 8  21021755.891    86080703.14547  21021762.0474         50.300
        46.1004
 108829929.494 8  20709647.672    84802622.88847  20709654.1684         49.600
        45.0004
 118199696.608 7  22492686.133    92103806.89345  22492690.2344         44.600
        32.9004
 120822400.711 7  22991766.625    94147447.36245  22991768.1174         43.000
        31.7004
 119372899.996 7  22715896.063    93017883.46945  22715899.8714         45.400
        34.7004
 114101855.240 8  21712860.406    88910596.68446  21712864.5394         49.500
        41.6004
 126627741.47715  24096468.695    98671052.22452  24096475.5744         31.800
        14.8004
 108486142.105 7  20644181.008    84534530.79047  20644183.9454         47.700
        43.1004
 123707627.051 6  23540767.984    96395540.27844  23540775.9694         39.400
        25.4004
 20  2  9  7 36  0.0000000  0  8G27G26G04G23G21G31G16G08
 110406659.193 8  21009696.672    86031322.08047  21009702.2424         50.400
        46.0004
 108849705.933 8  20713410.906    84818033.10847  20713417.6254         48.600
        44.8004
 118202791.088 7  22493274.539    92106218.15445  22493280.0434         43.800
        32.9004
 120811318.677 7  22989658.438    94138812.00045  22989659.6684         44.100
        31.2004
 119387744.681 7  22718720.172    93029450.76545  22718724.7194         43.600
        34.6004
 114170881.871 8  21725996.164    88964383.65746  21725999.7504         50.100
        41.7004
 108474777.420 8  20642018.453    84525675.18147  20642021.1374         48.100
        43.4004
 123609125.154 6  23522023.750    96318785.60044  23522031.2894         40.100
        26.6004
 20  2  9  7 36 30.0000000  0  9G27G26G04G23G21G31G09G16G08
 110343746.195 8  20997724.953    85982298.98347  20997730.4534         50.600
        46.3004
 108869683.389 8  20717212.297    84833599.95947  20717218.8754         48.400
        44.6004
 118206451.268 7  22493971.648    92109070.20045  22493976.1914         44.200
        33.5004
 120800769.011 7  22987650.625    94130591.50845  22987653.2424         42.600
        30.2004
 119403089.838 7  22721641.234    93041408.03845  22721644.0554         45.100
        34.6004
 114240252.055 8  21739196.891    89018438.33347  21739200.7664         49.900
        42.3004
 126539849.903 5  24079745.594                                          30.300

 108463647.502 7  20639900.406    84517002.52647  20639903.1844         47.800
        43.5004
 123510855.260 6  23503323.586    96242211.74244  23503331.0354         39.400
        27.7004
 20  2  9  7 37  0.0000000  0  9G27G26G04G23G21G31G09G16G08
 110281292.233 8  20985839.938    85933633.58447  20985846.2704         50.300
        46.3004
 108889860.539 8  20721051.977    84849322.41647  20721058.4534         49.300
        44.6004
 118210675.219 7  22494775.055    92112361.58045  22494780.5474         45.200
        34.0004
 120790750.126 7  22985743.203    94122784.56344  22985745.5204         43.100
        29.9004
 119418933.962 7  22724656.461    93053754.11845  22724658.8204         46.200
        35.2004
 114309963.362 8  21752462.633    89072758.82746  21752466.1884         50.100
        41.5004
 126496526.23215  24071530.516                                          32.900

 108452750.010 7  20637826.758    84508510.99547  20637829.6884         47.600
        43.6004
 123412817.324 6  23484667.578    96165818.60844  23484673.8954         39.800
        28.1004
 20  2  9  7 37 30.0000000  0  9G27G26G04G23G21G31G09G16G08
 110219299.407 8  20974043.188    85885327.49947  20974049.3984         49.800
        46.3004
 108910238.465 7  20724929.664    84865201.34547  20724936.5984         47.900
        44.5004
 118215463.439 7  22495686.258    92116092.64345  22495691.5594         45.200
        34.5004
 120781263.203 7  22983939.258    94115392.15045  22983940.8954         44.500
        32.2004
 119435278.077 7  22727766.820    93066489.81345  22727769.5554         45.700
        35.1004
 114380016.460 8  21765793.586    89127345.62847  21765796.3364         50.300
        42.4004
 126453993.692 5  24063407.367                                          33.500

 108442086.113 8  20635797.836    84500201.44747  20635800.5314         48.000
        43.6004
 123315014.532 6  23466056.070    96089608.72144  23466063.1024         38.300
        25.3004
 20  2  9  7 38  0.0000000  0  9G27G26G04G23G21G31G09G16G08
 110157770.033 8  20962334.320    85837382.56347  20962340.4454         49.600
        45.6004
 108930818.566 8  20728846.313    84881237.77647  20728853.0744         49.500
        44.9004
 118220816.822 7  22496705.766    92120264.10445  22496709.9884         46.400
        35.2004
 120772309.652 7  22982234.719    94108415.35245  22982236.6604         42.700
        31.4004
 119452123.635 7  22730971.516    93079616.24545  22730975.3634         44.300
        34.5004
 114450411.632 8  21779189.500    89182199.00047  21779192.4344         50.400
        42.4004
 126411836.043 5  24055383.695                                          32.000

 108431657.299 7  20633812.719    84492075.10747  20633815.9734         47.600
        43.6004
 123217449.714 6  23447490.688    96013584.21744  23447498.4064         39.700
        28.1004
 20  2  9  7 38 30.0000000  0  9G27G26G04G23G21G31G09G16G08
 110096704.079 8  20950714.016    85789798.71847  20950719.9574         50.000
        46.3004
 108951599.616 8  20732801.133    84897430.80247  20732807.1484         49.900
        45.1004
 118226733.342 7  22497831.281    92124874.35045  22497836.1174         45.400
        35.5004
 120763887.957 7  22980632.406    94101852.99945  22980634.6684         43.800
        31.6004
 119469469.065 7  22734272.359    93093132.17545  22734275.4694         44.500
        33.9004
 114521146.970 8  21792649.258    89237317.42546  21792653.1294         48.900
        41.8004
 126370191.099 6  24047459.867    98470363.92642  24047469.4964         37.000
        13.9004
 108421461.832 7  20631872.930    84484130.61147  20631875.6294         47.600
        43.0004
 123120123.440 6  23428969.945    95937745.59545  23428977.3364         41.100
        31.1004
 20  2  9  7 39  0.0000000  0  9G27G26G04G23G21G31G09G16G08
 110036100.865 8  20939181.313    85742575.44647  20939187.7934         49.800
        46.2004
 108972580.206 8  20736793.289    84913779.31547  20736799.4884         48.500
        44.6004
 118233210.949 7  22499064.047    92129921.85046  22499069.5944         46.300
        36.5004
 120755996.517 7  22979131.047    94095703.84145  22979132.2544         44.100
        32.1004
 119487312.694 7  22737667.797    93107036.31845  22737671.2974         43.800
        34.3004
 114592219.872 8  21806174.273    89292698.90546  21806177.7974         49.800
        41.8004
 126329058.478 6  24039633.586    98438312.69043  24039640.6334         36.500
        18.6004
 108411498.411 7  20629977.039    84476366.91947  20629979.5554         47.500
        43.4004
 123023035.468 7  23410495.289    95862092.68345  23410501.9104         42.000
        31.8004
 20  2  9  7 39 30.0000000  0  9G27G26G04G23G21G31G09G16G08
 109975961.188 8  20927737.078    85695713.38247  20927743.5904         50.300
        46.4004
 108993760.174 8  20740823.813    84930283.17747  20740830.2854         49.500
        45.6004
 118240248.700 7  22500403.000    92135405.84145  22500408.3364         45.000
        34.4004
 120748635.155 7  22977730.641    94089967.67745  22977731.8834         44.200
        32.8004
 119505654.166 7  22741158.039    93121328.38645  22741161.8444         43.800
        34.4004
 114663629.693 8  21819762.953    89348342.90746  21819766.7814         50.100
        41.7004
 126288439.509 6  24031904.461    98406661.55243  24031910.2344         38.400
        20.4004
 108401766.234 7  20628124.805    84468783.39447  20628127.7304         47.800
        43.0004
 122926187.629 7  23392065.594    95786626.87845  23392072.3634         42.900
        31.1004
 20  2  9  7 40  0.0000000  0  9G27G26G04G23G21G31G09G16G08
 109916286.452 8  20916381.742    85649213.61747  20916386.9414         50.700
        45.9004
 109015140.034 8  20744891.805    84946942.80747  20744898.6414         48.800
        45.0004
 118247846.491 7  22501848.875    92141326.18245  22501853.6374         44.100
        33.3004
 120741803.960 7  22976429.992    94084644.64645  22976432.0164         44.100
        32.5004
 119524494.157 7  22744743.813    93136008.91745  22744746.9024         44.600
        34.8004
 114735375.714 8  21833415.734    89404248.87746  21833419.9384         49.200
        41.6004
 126248335.548 6  24024273.063    98375411.76143  24024278.6334         37.800
        20.1004
 108392265.666 8  20626317.289    84461380.36547  20626319.6564         48.300
        43.3004
 122829582.022 7  23373681.648    95711349.84045  23373689.3634         42.800
        32.4004
 20  2  9  7 40 30.0000000  0  9G27G26G04G23G21G31G09G16G08
 109857077.651 8  20905114.508    85603076.91047  20905120.1484         51.300
        46.5004
 109036719.896 8  20748998.688    84963758.28647  20749005.1334         49.300
        45.2004
 118256003.588 7  22503400.969    92147682.31445  22503405.0004         45.000
        34.4004
 120735502.693 7  22975230.703    94079734.58445  22975233.2074         43.800
        32.5004
 119543832.286 7  22748423.289    93151077.62445  22748426.4494         44.600
        34.4004
 114807456.955 8  21847132.250    89460416.06046  21847136.4614         48.800
        41.4004
 126208747.943 6  24016738.977    98344564.24843  24016746.5204         36.100
        20.1004
 108382996.720 8  20624553.023    84454157.81847  20624555.5904         48.100
        43.2004
 122733220.226 7  23355344.938    95636262.74145  23355352.6374         42.600
        33.2004
 20  2  9  7 41  0.0000000  0  9G27G26G04G23G21G31G09G16G08
 109798335.495 8  20893936.383    85557303.82447  20893942.6884         51.000
        47.2004
 109058499.603 8  20753143.086    84980729.48647  20753149.6334         48.700
        44.5004
 118264719.021 7  22505059.359    92154473.57645  22505064.7584         45.500
        35.1004
 120729731.316 7  22974132.609    94075237.43345  22974134.7384         44.100
        32.8004
 119563668.038 7  22752197.555    93166534.07545  22752200.2704         44.500
        33.8004
 114879872.406 8  21860912.883    89516843.69546  21860916.7734         49.300
        41.4004
 126169677.643 6  24009305.734    98314119.80742  24009311.1024         36.200
        16.9004
 108373959.413 8  20622833.227    84447115.77247  20622835.8364         48.500
        43.0004
 122637103.540 6  23337053.547    95561366.66945  23337061.2424         41.300
        30.7004
 20  2  9  7 41 30.0000000  0  9G27G26G04G23G21G31G09G16G08
 109740060.713 8  20882847.117    85511894.93047  20882853.1954         50.600
        47.1004
 109080479.075 8  20757325.891    84997856.35647  20757331.9304         49.000
        44.7004
 118273991.894 7  22506824.063    92161699.18646  22506829.7194         45.200
        36.7004
 120724489.290 7  22973134.805    94071152.71945  22973136.3754         43.200
        31.5004
 119584000.903 7  22756066.961    93182377.87545  22756070.1374         44.800
        34.8004
 114952621.174 8  21874756.781    89573531.02246  21874759.7234         50.000
        41.5004
 126131125.524 5  24001969.391    98284087.20442  24001978.6334         33.100
        15.6004
 108365152.767 7  20621157.297    84440253.45547  20621160.0084         47.700
        43.2004
 122541233.974 7  23318811.008    95486663.19345  23318817.6454         42.600
        31.3004
 20  2  9  7 42  0.0000000  0  9G27G26G04G23G21G31G09G16G08
 109682253.964 8  20871846.969    85466850.73447  20871852.9184         50.700
        47.3004
 109102658.157 8  20761546.203    85015138.74247  20761552.9574         48.600
        44.8004
 118283821.198 7  22508694.953    92169358.35845  22508699.6024         45.300
        35.9004
 120719775.947 7  22972237.672    94067479.96244  22972240.1524         42.200
        29.8004
 119604830.451 7  22760031.688    93198608.71745  22760033.8714         45.400
        35.1004
 115025702.065 8  21888663.602    89630477.17946  21888666.7234         49.500
        41.0004
 126092945.95114  23994731.742    98254279.70252  23994740.5594         28.900
        13.9004
 108356576.725 8  20619525.297    84433570.84547  20619528.4024         49.300
        43.3004
 122445612.010 6  23300614.359    95412152.62045  23300620.6094         41.600
        31.3004
 20  2  9  7 42 30.0000000  0  9G27G26G04G23G21G31G09G16G08
 109624916.625 8  20860935.492    85422172.29947  20860941.7234         50.800
        46.5004
 109125037.377 8  20765805.000    85032577.08847  20765811.4844         48.600
        45.0004
 118294206.570 7  22510670.828    92177450.86845  22510675.7154         43.900
        35.8004
 120715591.864 7  22971443.602    94064219.66545  22971444.2544         44.600
        33.3004
 119626157.094 7  22764089.242    93215226.90445  22764092.1914         45.100
        34.0004
 115099114.687 8  21902633.273    89687681.80946  21902636.9104         49.900
        41.8004
 126055436.98414  23987594.023                                          26.800

 108348231.904 8  20617937.656    84427068.41047  20617940.5594         49.600
        43.7004
 122350240.360 7  23282466.008    95337837.10645  23282472.9224         42.600
        31.7004
 20  2  9  7 43  0.0000000  0  9G27G26G04G23G21G31G09G16G08
 109568048.038 8  20850114.336    85377859.14947  20850119.4694         50.400
        46.8004
 109147615.437 8  20770101.469    85050170.39547  20770107.8054         48.800
        44.9004
 118305145.806 7  22512752.195    92185974.94645  22512757.0784         44.100
        35.7004
 120711935.005 7  22970746.828    94061370.16845  22970748.1954         45.600
        32.3004
 119647978.803 7  22768242.063    93232230.86445  22768244.7544         44.300
        34.3004
 115172856.533 8  21916665.797    89745142.95846  21916669.6844         49.100
        41.3004
 126018458.12515  23980557.180                                          31.900

 108340116.138 8  20616393.266    84420744.43647  20616396.3754         48.300
        43.6004
 122255118.969 7  23264364.984    95263716.61145  23264372.1374         42.700
        31.5004
 20  2  9  7 43 30.0000000  0  8G27G26G04G23G21G31G16G08
 109511651.859 8  20839381.789    85333914.09547  20839388.1804         51.300
        47.3004
 109170395.125 8  20774436.102    85067920.81547  20774442.9104         49.300
        45.0004
 118316640.741 7  22514940.180    92194932.03446  22514945.1954         45.600
        36.6004
 120708807.870 7  22970149.602    94058933.38645  22970153.1914         42.000
        30.8004
 119670297.786 7  22772489.164    93249622.26745  22772492.4734         45.300
        34.8004
 115246929.396 8  21930761.695    89802862.04746  21930765.1134         49.500
        41.1004
 108332232.599 7  20614892.570    84414601.42247  20614895.6914         47.800
        43.5004
 122160252.190 7  23246311.664    95189794.46645  23246319.4064         42.700
        32.9004
 20  2  9  7 44  0.0000000  0  8G27G26G04G23G21G31G16G08
 109455727.043 8  20828739.688    85290336.33947  20828745.6844         50.000
        46.8004
 109193374.739 8  20778809.117    85085827.00247  20778816.0554         48.500
        45.0004
 118328688.693 7  22517232.875    92204320.05646  22517237.4384         44.500
        36.0004
 120706208.390 7  22969655.992    94056907.82945  22969659.2344         42.200
        30.5004
 119693112.288 7  22776830.289    93267399.81245  22776833.0944         45.400
        33.2004
 115321330.573 8  21944919.547    89860836.96646  21944923.1294         49.800
        41.2004
 108324578.564 8  20613436.359    84408637.25947  20613439.3094         48.100
        43.6004
 122065639.772 7  23228308.078    95116070.53945  23228315.8164         43.100
        34.4004
 20  2  9  7 44 30.0000000  0  8G27G26G04G23G21G31G16G08
 109400273.590 8  20818187.266    85247125.87847  20818193.1414         51.000
        47.0004
 109216553.597 8  20783220.055    85103888.44647  20783226.5904         48.600
        44.9004
 118341288.007 7  22519630.680    92214137.68645  22519634.9614         45.300
        35.2004
 120704135.270 7  22969261.813    94055292.41944  22969263.4574         42.800
        28.7004
 119716421.076 7  22781265.875    93285562.53545  22781268.4384         45.700
        34.2004
 115396058.265 8  21959139.953    89919066.32046  21959143.3984         49.600
        41.5004
 108317153.546 7  20612023.195    84402851.53147  20612026.1844         47.100
        43.2004
 121971282.758 7  23210352.945    95042545.64745  23210360.9884         44.000
        34.8004
 20  2  9  7 45  0.0000000  0  9G27G26G04G23G21G31G09G16G08
 109345292.983 8  20807724.766    85204283.86347  20807730.5474         50.300
        46.8004
 109239932.453 8  20787668.492    85122105.74147  20787675.3524         48.800
        44.5004
 118354438.364 7  22522132.563    92224384.71745  22522137.2544         44.300
        35.8004
 120702588.614 7  22968967.344    94054087.25145  22968969.9024         43.400
        30.3004
 119740224.134 7  22785794.844    93304110.40745  22785798.8444         44.500
        33.6004
 115471112.364 8  21973422.227    89977550.01546  21973425.8364         49.400
        41.6004
 125875713.33714  23953393.750                                          29.100

 108309958.068 8  20610654.406    84397244.67747  20610657.2624         48.700
        43.3004
 121877183.123 6  23192445.414    94969221.31945  23192452.8914         41.800
        32.3004
 20  2  9  7 45 30.0000000  0  9G27G26G04G23G21G31G09G16G08
 109290785.238 8  20797352.352    85161810.30247  20797358.4344         51.600
        46.8004
 109263510.705 8  20792155.492    85140478.39747  20792161.9344         48.800
        44.7004
 118368138.069 7  22524739.570    92235059.80345  22524743.9964         45.200
        34.4004
 120701567.491 7  22968773.766    94053291.58445  22968775.1334         43.900
        32.2004
 119764520.653 7  22790418.117    93323042.78245  22790422.5164         44.100
        34.3004
 115546491.061 8  21987766.305    90036286.64446  21987770.2704         49.300
        41.6004
 125841428.364 6  23946852.664    98058385.30742  23946857.9964         36.700
        13.9004
 108302991.602 8  20609328.727    84391816.28047  20609331.5744         48.700
        43.4004
 121783341.835 7  23174589.109    94896098.29445  23174595.3754         43.000
        34.5004
 20  2  9  7 46  0.0000000  0  9G27G26G04G23G21G31G09G16G08
 109236751.038 8  20787070.414    85119705.76047  20787075.9844         51.400
        47.1004
 109287288.356 8  20796680.016    85159006.44747  20796686.6414         48.300
        44.7004
 118382386.137 7  22527451.016    92246162.17245  22527455.4884         45.000
        34.8004
 120701071.383 6  22968677.703    94052904.98445  22968681.8674         41.700
        30.9004
 119789310.127 7  22795135.945    93342359.25945  22795139.9304         43.900
        34.7004
 115622193.062 8  22002171.578    90095275.22346  22002175.5474         49.100
        40.8004
 125807583.543 5  23940412.203    98032012.80442  23940417.1844         34.300
        15.6004
 108296253.876 7  20608046.305    84386566.09947  20608049.1604         47.700
        43.2004
 121689760.079 7  23156780.375    94823177.53445  23156786.3094         43.700
        34.2004
 20  2  9  7 46 30.0000000  0  8G27G26G04G23G21G31G16G08
 109183191.274 8  20776877.773    85077970.90147  20776883.5984         51.000
        46.6004
 109311265.702 8  20801242.969    85177690.09547  20801249.5864         48.800
        44.7004
 118397181.670 7  22530266.578    92257691.15745  22530270.5784         43.900
        33.4004
 120701099.932 7  22968685.086    94052927.22845  22968686.6414         44.300
        32.2004
 119814592.130 7  22799946.836    93362059.52645  22799950.4064         44.600
        35.5004
 115698217.846 8  22016638.883    90154515.31046  22016642.5944         48.800
        41.3004
 108289744.588 8  20606807.461    84381493.93547  20606810.3834         48.000
        43.6004
 121596440.114 7  23139021.930    94750460.70645  23139029.3164         43.300
        33.9004
 20  2  9  7 47  0.0000000  0  9G27G26G04G23G21G31G09G16G08
 109130106.711 8  20766776.234    85036606.32347  20766781.7624         50.900
        46.7004
 109335442.890 8  20805843.367    85196529.46347  20805850.3204         49.300
        44.7004
 118412523.741 7  22533185.883    92269646.01545  22533191.9774         43.200
        34.9004
 120701652.813 6  22968789.625    94053358.07744  22968792.3204         41.700
        29.6004
 119840366.356 7  22804851.234    93382143.35845  22804854.8014         43.900
        34.3004
 115774564.120 8  22031167.133    90214005.90146  22031171.1844         49.300
        41.2004
 125741456.527 5  23927832.836                                          33.700

 108283463.821 8  20605612.602    84376599.85647  20605615.2774         48.400
        43.5004
 121503382.910 7  23121314.383    94677948.66445  23121321.3594         44.800
        35.0004
 20  2  9  7 47 30.0000000  0  9G27G26G04G23G21G31G09G16G08
 109077496.938 8  20756764.828    84995611.71447  20756771.0084         51.600
        47.3004
 109359819.005 8  20810482.070    85215523.83447  20810488.8484         48.800
        44.5004
 118428410.221 7  22536208.922    92282025.08045  22536213.7464         44.100
        34.3004
 120702728.499 6  22968993.891    94054196.25844  22968994.9534         41.100
        28.5004
 119866631.140 7  22809849.445    93402609.44445  22809852.8594         44.200
        34.0004
 115851230.078 8  22045755.516    90273745.57046  22045760.1294         48.400
        40.8004
 125709195.311 6  23921693.836    97955359.58542  23921699.4264         38.700
        14.8004
 108277410.664 8  20604460.438    84371883.10447  20604463.4774         48.500
        43.9004
 121410589.508 7  23103655.719    94605642.16745  23103662.3094         44.500
        32.7004
 20  2  9  7 48  0.0000000  0  9G27G26G04G23G21G31G09G16G08
 109025363.813 8  20746844.633    84954988.53148  20746850.5354         51.500
        48.0004
 109384395.303 8  20815158.953    85234674.19047  20815165.9224         48.800
        44.8004
 118444841.148 7  22539335.047    92294828.40545  22539340.3634         42.800
        33.4004
 120704327.504 7  22969299.156    94055442.23045  22969300.9454         43.200
        30.5004
 119893387.250 7  22814941.516    93423458.38445  22814944.5864         45.300
        34.4004
 115928215.687 8  22060405.820    90333734.36546  22060409.5594         48.700
        39.9004
 125677464.075 6  23915653.766    97930633.93742  23915657.2624         37.600
        16.3004
 108271585.945 8  20603352.336    84367344.36147  20603355.2194         48.200
        43.9004
 121318062.413 7  23086048.031    94533543.17845  23086054.7114         43.200
        33.0004
 20  2  9  7 48 30.0000000  0  9G27G26G04G23G21G31G09G16G08
 108973707.794 8  20737014.711    84914737.11347  20737020.4844         50.500
        47.4004
 109409171.696 8  20819873.570    85253980.48247  20819880.7384         49.400
        45.1004
 118461815.284 7  22542566.188    92308055.01445  22542570.9654         44.500
        34.8004
 120706449.050 7  22969702.258    94057095.41344  22969703.9884         42.500
        29.3004
 119920633.870 7  22820125.977    93444689.53945  22820129.4264         44.100
        33.7004
 116005519.744 8  22075116.367    90393971.29146  22075119.5944         49.800
        40.8004
 125646263.354 6  23909716.078    97906321.70942  23909723.1454         36.300
        14.8004
 108265989.400 7  20602287.047    84362983.43647  20602290.0084         47.200
        43.5004
 121225802.356 7  23068492.031    94461652.25445  23068498.2344         44.900
        33.8004
 20  2  9  7 49  0.0000000  0  9G27G26G04G23G21G31G09G16G08
 108922528.649 8  20727275.359    84874857.27547  20727281.0354         50.200
        47.2004
 109434147.473 8  20824626.344    85273442.10847  20824633.5944         48.800
        45.3004
 118479330.623 7  22545899.672    92321703.32045  22545903.6564         45.300
        35.3004
 120709091.764 7  22970204.906    94059154.66544  22970208.1414         42.600
        28.9004
 119948369.783 7  22825403.828    93466301.94245  22825406.6954         44.600
        34.1004
 116083140.361 8  22089886.930    90454454.88046  22089890.4964         49.900
        40.6004
 125615593.316 5  23903878.484                                          34.300

 108260619.995 7  20601265.563    84358799.48247  20601268.2774         47.600
        43.7004
 121133810.599 7  23050987.023    94389970.42845  23050993.4454         43.600
        35.9004
 20  2  9  7 49 30.0000000  0  9G27G26G04G23G21G31G09G16G08
 108871826.899 8  20717627.133    84835349.43247  20717632.9734         50.800
        47.6004
 109459322.662 8  20829417.359    85293059.14147  20829423.9844         48.300
        45.1004
 118497385.830 7  22549334.797    92335772.31545  22549339.1844         44.900
        35.1004
 120712254.599 7  22970807.367    94061619.17744  22970808.2704         44.700
        29.1004
 119976594.088 7  22830774.992    93488294.92645  22830777.7974         44.500
        33.9004
 116161076.119 8  22104718.219    90515184.03146  22104721.7854         50.600
        40.8004
 125585454.314 5  23898145.422                                          33.400

 108255477.396 7  20600286.781    84354792.27347  20600289.7544         47.100
        42.9004
 121042088.504 7  23033532.570    94318498.72546  23033540.0394         44.800
        36.8004
 20  2  9  7 50  0.0000000  0  9G27G26G04G23G21G31G09G16G08
 108821603.417 8  20708069.867    84796214.27047  20708075.7304         50.000
        47.4004
 109484697.632 8  20834246.203    85312831.83347  20834252.6684         49.300
        45.0004
 118515980.189 7  22552872.828    92350261.41345  22552877.9384         44.600
        35.5004
 120715937.490 7  22971507.906    94064488.98045  22971510.0394         43.700
        30.4004
 120005306.636 7  22836239.148    93510668.34045  22836241.3134         45.100
        33.8004
 116239326.434 8  22119608.367    90576158.30546  22119612.7154         49.100
        40.8004
 125555847.642 5  23892510.273    97835876.83942  23892520.8094         33.500
        12.6004
 108250561.990 8  20599351.523    84350962.09147  20599354.2344         48.100
        42.9004
 120950637.631 7  23016130.883    94247238.40745  23016136.7584         45.800
        35.8004
 20  2  9  7 50 30.0000000  0  9G27G26G04G23G21G31G09G16G08
 108771857.607 8  20698603.828    84757451.32647  20698609.3014         50.400
        47.8004
 109510271.427 8  20839112.242    85332759.47047  20839119.2274         48.800
        44.6004
 118535111.228 7  22556513.750    92365168.68546  22556519.3014         46.300
        36.5004
 120720138.804 7  22972306.977    94067762.67745  22972309.0234         44.500
        30.8004
 120034505.384 7  22841795.398    93533420.63445  22841797.3674         44.500
        32.9004
 116317888.944 8  22134558.188    90637375.83746  22134562.1764         48.900
        40.6004
 125526772.688 5  23886977.766                                          32.800

 108245872.930 8  20598459.297    84347308.27547  20598462.1484         48.100
        43.5004
 120859458.377 7  22998778.734    94176189.64645  22998785.7774         43.800
        34.9004
 20  2  9  7 51  0.0000000  0  9G27G26G04G23G21G31G09G16G08
 108722591.352 8  20689228.492    84719062.04847  20689234.2814         50.000
        47.2004
 109536045.455 8  20844017.352    85352843.13347  20844023.4344         49.900
        44.4004
 118554778.982 7  22560255.945    92380494.20745  22560261.5824         45.400
        35.2004
 120724858.960 7  22973206.148    94071440.71045  22973208.0664         45.800
        32.4004
 120064190.945 7  22847443.805    93556552.24245  22847447.0904         44.400
        33.8004
 116396763.881 8  22149567.961    90698836.82446  22149571.4804         49.500
        40.6004
 125498231.663 5  23881548.211                                          33.700

 108241410.830 8  20597610.023    84343831.32547  20597612.8524         48.100
        43.2004
 120768553.374 7  22981480.055    94105354.61245  22981486.8444         44.100
        34.7004
 20  2  9  7 51 30.0000000  0  9G27G26G04G23G21G31G09G16G08
 108673804.250 8  20679944.555    84681046.14447  20679950.6024         50.500
        47.5004
 109562018.939 8  20848959.797    85373082.20247  20848965.9964         49.200
        44.7004
 118574981.367 7  22564100.508    92396236.32945  22564105.6134         44.900
        34.4004
 120730096.329 7  22974201.766    94075521.77545  22974204.3134         44.300
        31.9004
 120094362.081 7  22853185.813    93580062.23545  22853189.2074         44.300
        34.2004
 116475949.612 8  22164636.875    90760539.97646  22164639.7734         49.000
        40.9004
 125470224.157 5  23876219.992                                          32.500

 108237174.717 7  20596803.742    84340530.47047  20596806.8484         47.300
        43.2004
 120677923.279 7  22964233.867    94034733.80345  22964240.9304         43.900
        34.5004
 20  2  9  7 52  0.0000000  0  9G27G26G04G23G21G31G09G16G08
 108625496.497 8  20670752.156    84643403.75847  20670758.1524         50.900
        47.6004
 109588191.669 8  20853940.047    85393476.53347  20853946.4024         48.700
        44.1004
 118595716.805 7  22568046.430    92412393.79445  22568051.1174         45.900
        34.4004
 120735849.850 7  22975296.422    94080005.00245  22975299.7584         44.900
        31.6004
 120125017.647 7  22859018.883    93603949.69745  22859023.3094         44.100
        34.0004
 116555444.090 8  22179763.414    90822483.70546  22179767.7424         48.600
        40.1004
 125442750.70814  23870997.141                                          28.300

 108233164.218 8  20596040.773    84337405.40447  20596043.5864         49.300
        43.6004
 120587569.113 7  22947038.992    93964328.00645  22947046.9654         43.500
        34.3004
 20  2  9  7 52 30.0000000  0  8G27G26G04G23G21G31G16G08
 108577669.142 8  20661650.977    84606135.69847  20661656.6564         52.200
        47.9004
 109614564.342 8  20858958.492    85414026.66447  20858965.0234         49.100
        44.5004
 118616984.450 7  22572093.609    92428965.96745  22572098.2114         44.300
        33.3004
 120742119.371 7  22976490.430    94084890.35445  22976490.8164         45.700
        31.8004
 120156157.320 7  22864944.352    93628214.38845  22864947.9614         44.600
        33.6004
 116635246.861 8  22194949.625    90884667.67546  22194953.5124         48.500
        40.1004
 108229380.379 7  20595320.695    84334456.96247  20595323.3914         47.900
        43.7004
 120497492.678 7  22929899.023    93894138.65746  22929906.1214         44.900
        36.0004
 20  2  9  7 53  0.0000000  0  8G27G26G04G23G21G31G16G08
 108530322.312 8  20652640.633    84569242.08547  20652646.8094         50.500
        47.2004
 109641136.748 8  20864015.188    85434732.43247  20864021.7734         48.600
        44.6004
 118638782.677 7  22576241.625    92445951.57945  22576246.9064         43.900
        33.9004
 120748903.747 7  22977781.375    94090176.89945  22977781.9654         45.700
        32.7004
 120187780.354 7  22870962.078    93652855.74645  22870964.6054         44.200
        32.7004
 116715356.573 8  22210194.008    90947090.81046  22210197.7544         48.200
        40.6004
 108225822.075 8  20594643.664    84331684.25947  20594646.3204         49.200
        44.1004
 120407694.975 7  22912810.523    93824166.44845  22912816.8484         44.100
        34.4004
 20  2  9  7 53 30.0000000  0  8G27G26G04G23G21G31G16G08
 108483455.917 8  20643722.719    84532722.81647  20643728.5824         51.200
        47.8004
 109667908.502 8  20869109.438    85455593.54247  20869116.2854         48.200
        44.1004
 118661109.588 7  22580489.945    92463349.19345  22580495.3984         43.600
        33.3004
 120756201.602 7  22979169.078    94095863.48245  22979171.8984         43.900
        33.0004
 120219885.193 7  22877071.531    93677872.52945  22877074.5434         44.800
        34.7004
 116795771.437 8  22225496.469    91009751.72646  22225499.9064         48.800
        39.7004
 108222488.637 7  20594009.359    84329086.78447  20594011.8554         47.600
        43.9004
 120318177.503 7  22895776.414    93754412.63946  22895783.2424         45.600
        36.0004
 20  2  9  7 54  0.0000000  0  9G27G26G04G23G21G31G09G16G08
 108437071.198 8  20634896.086    84496578.90548  20634901.9224         50.900
        48.2004
 109694880.581 8  20874242.383    85476610.74547  20874248.6954         49.200
        44.5004
 118683964.633 7  22584839.305    92481158.31045  22584845.2234         44.100
        34.8004
 120764013.046 7  22980656.336    94101950.34845  22980657.9454         45.600
        31.7004
 120252472.171 7  22883272.805    93703264.97645  22883276.0864         44.700
        33.9004
 116876490.974 8  22240857.164    91072650.05246  22240860.2974         48.700
        39.6004
 125338337.956 5  23851098.469                                          34.800

 108219381.379 7  20593417.781    84326665.54247  20593420.6254         47.600
        43.6004
 120228941.766 7  22878795.633    93684878.34945  22878801.1414         45.400
        34.6004
 20  2  9  7 54 30.0000000  0  9G27G26G04G23G21G31G09G16G08
 108391167.957 8  20626161.031    84460810.15748  20626166.8204         50.800
        48.0004
 109722052.409 8  20879412.844    85497783.58947  20879419.4304         49.300
        44.2004
 118707345.777 7  22589288.633    92499377.37545  22589293.1844         43.200
        33.3004
 120772336.368 7  22982239.844    94108436.06345  22982242.9104         44.700
        34.0004
 120285539.761 7  22889565.227    93729031.94445  22889568.8554         43.700
        34.9004
 116957513.523 8  22256275.234    91135784.49346  22256278.9964         48.600
        40.5004
 125313349.82013  23846379.531                                          23.800

 108216499.037 8  20592869.477    84324419.56347  20592872.3674         48.000
        43.1004
 120139988.868 7  22861868.039    93615564.42745  22861874.7894         45.100
        35.2004
 20  2  9  7 55  0.0000000  0  8G27G26G04G23G21G31G16G08
 108345747.339 8  20617517.891    84425417.48448  20617523.3134         51.500
        48.3004
 109749424.967 8  20884621.906    85519112.85547  20884628.1764         48.100
        43.9004
 118731252.365 7  22593838.414    92518005.88745  22593842.7274         45.000
        32.7004
 120781171.410 7  22983921.977    94115320.50145  22983924.0514         47.000
        34.7004
 120319087.249 7  22895949.898    93755172.85345  22895952.6524         45.100
        34.4004
 117038838.450 8  22271750.359    91199154.55846  22271754.6334         48.800
        40.3004
 108213842.638 8  20592363.672    84322349.65747  20592367.0594         48.800
        43.2004
 120051320.592 7  22844994.938    93546472.35345  22845002.0234         44.800
        35.9004
 20  2  9  7 55 30.0000000  0  8G27G26G04G23G21G31G16G08
 108300808.717 8  20608966.266    84390400.38748  20608971.7074         51.200
        48.2004
 109776997.338 7  20889868.023    85540597.81647  20889874.8984         47.800
        43.2004
 118755681.913 7  22598487.352    92537041.89845  22598492.3404         44.000
        34.4004
 120790516.410 7  22985700.070    94122602.31945  22985701.6024         47.000
        33.3004
 120353113.702 7  22902424.539    93781686.98245  22902427.6134         44.900
        34.2004
 117120463.796 8  22287283.727    91262758.72246  22287287.0474         48.700
        39.7004
 108211411.183 7  20591900.883    84320455.00847  20591904.0394         47.800
        43.4004
 119962937.674 7  22828176.688    93477602.61946  22828183.3324         44.500
        36.5004
 20  2  9  7 56  0.0000000  0  8G27G26G04G23G21G31G16G08
 108256351.866 8  20600506.305    84355758.70648  20600512.3834         51.400
        48.4004
 109804769.176 7  20895153.617    85562238.20047  20895159.9694         47.700
        43.3004
 118780632.344 7  22603234.680    92556483.77545  22603239.3714         42.300
        32.9004
 120800370.190 7  22987574.508    94130280.56645  22987576.4654         43.400
        30.2004
 120387617.190 7  22908990.266    93808572.82245  22908992.7344         45.400
        33.1004
 117202387.787 8  22302872.445    91326595.58846  22302876.6374         48.600
        39.6004
 108209203.633 7  20591481.219    84318734.85747  20591484.1524         47.300
        43.0004
 119874840.756 7  22811412.063    93408955.69745  22811418.7424         44.600
        35.5004
 20  2  9  7 56 30.0000000  0  9G27G26G04G23G21G31G09G16G08
 108212376.317 8  20592138.234    84321492.07248  20592143.5554         52.300
        48.6004
 109832739.717 8  20900475.969    85584033.42747  20900482.7624         48.100
        43.9004
 118806101.395 7  22608081.703    92576329.76545  22608085.6134         43.900
        33.2004
 120810730.441 7  22989546.375    94138353.46445  22989547.9064         44.300
        30.9004
 120422596.585 7  22915647.141    93835829.52745  22915648.7194         44.700
        33.0004
 117284608.019 8  22318518.914    91390663.30746  22318522.7114         48.800
        39.6004
 125219538.16215  23828527.766                                          30.500

 108207219.499 7  20591103.141    84317188.78047  20591106.2854         47.300
        43.3004
 119787030.371 7  22794701.898    93340532.05245  22794709.2934         43.800
        35.6004
 20  2  9  7 57  0.0000000  0  8G27G26G04G23G21G31G16G08
 108168885.628 8  20583862.109    84287603.24148  20583867.3134         50.900
        48.1004
 109860912.465 8  20905836.875    85605986.20547  20905844.2384         48.200
        44.6004
 118832090.806 7  22613026.891    92596581.22945  22613031.6094         44.300
        34.2004
 120821599.576 7  22991615.156    94146822.95345  22991616.1024         45.900
        32.4004
 120458053.812 7  22922393.055    93863458.55745  22922396.1094         44.700
        32.6004
 117367126.708 8  22334221.719    91454963.58046  22334225.6374         48.200
        39.2004
 108205461.593 8  20590769.086    84315818.97647  20590771.7194         48.000
        43.5004
 119699510.678 7  22778047.133    93272334.91745  22778054.1134         44.300
        35.3004
 20  2  9  7 57 30.0000000  0  8G27G26G04G23G21G31G16G08
 108125877.871 8  20575677.609    84254090.72947  20575683.3794         51.300
        47.8004
 109889285.257 8  20911236.594    85628094.85947  20911242.9654         48.700
        44.7004
 118858596.809 7  22618071.289    92617235.28245  22618076.3014         44.900
        35.2004
 120832974.608 7  22993779.031    94155686.59145  22993781.2384         44.000
        32.7004
 120493985.809 7  22929230.742    93891457.51745  22929233.8754         44.100
        32.5004
 117449940.310 8  22349980.281    91519493.64146  22349984.8554         48.500
        38.8004
 108203927.747 7  20590476.992    84314623.79447  20590480.0354         47.000
        43.6004
 119612281.098 7  22761448.516    93204363.85746  22761455.3444         44.700
        36.9004
 20  2  9  7 58  0.0000000  0  9G27G26G04G23G21G31G09G16G08
 108083353.028 8  20567585.242    84220954.51747  20567591.1844         50.900
        47.7004
 109917858.008 8  20916673.508    85650359.35247  20916680.4924         48.400
        44.5004
 118885617.510 7  22623213.945    92638290.36445  22623216.8554         44.900
        34.9004
 120844853.959 7  22996040.289    94164943.25845  22996041.6094         45.400
        34.1004
 120530391.361 7  22936158.242    93919825.50045  22936161.6174         43.200
        33.3004
 117533047.297 8  22365795.664    91584252.31446  22365799.2734         49.600
        39.4004
 125154957.775 5  23816214.320                                          33.600

 108202617.818 8  20590227.820    84313603.07147  20590230.7194         49.100
        43.8004
 119525342.556 7  22744905.211    93136619.59346  22744911.2934         45.400
        37.3004
 20  2  9  7 58 30.0000000  0  9G27G26G04G23G21G31G09G16G08
 108041311.921 8  20559585.406    84188195.20748  20559591.1374         51.100
        48.1004
 109946631.371 8  20922148.750    85672780.14947  20922156.0594         48.100
        43.9004
 118913151.950 7  22628452.250    92659745.76445  22628456.7074         43.700
        34.1004
 120857237.097 7  22998395.477    94174592.45445  22998398.3954         43.600
        31.9004
 120567270.221 7  22943176.484    93948562.28745  22943180.2304         43.700
        34.2004
 117616446.882 8  22381666.164    91649238.99746  22381669.4494         49.600
        38.9004
 125134468.800 6  23812316.836    97507503.95542  23812329.6524         37.100
        12.6004
 108201532.188 8  20590021.359    84312757.12847  20590024.2274         48.200
        44.1004
 119438696.634 7  22728416.938    93069103.32146  22728422.9384         45.400
        36.9004
 20  2  9  7 59  0.0000000  0  9G27G26G04G23G21G31G09G16G08
 107999754.025 8  20551677.117    84155812.44448  20551682.6134         52.300
        48.2004
 109975604.778 8  20927662.781    85695356.82847  20927669.2774         48.900
        43.8004
 118941197.668 7  22633788.922    92681599.53245  22633795.1214         42.800
        34.0004
 120870122.193 7  23000848.063    94184632.76745  23000851.3404         45.100
        33.5004
 120604620.592 7  22950284.570    93977666.47545  22950287.1844         45.000
        34.2004
 117700137.263 8  22397591.969    91714452.29046  22397594.7664         49.600
        39.6004
 125114518.726 5  23808518.211                                          34.300

 108200670.347 8  20589857.125    84312085.57647  20589860.4024         48.900
        43.4004
 119352344.696 7  22711984.055    93001816.13146  22711990.8054         46.300
        36.2004
